{
  "nodos": {
    "P1": {
      "nombre": "Colca",
      "lat": -11.8422,
      "lon": -77.0647,
      "tipo": "poi",
      "reportes": []
    },
    "P2": {
      "nombre": "Ladrillos Pirámide",
      "lat": -11.8586,
      "lon": -77.0583,
      "tipo": "poi",
      "reportes": []
    },
    "P3": {
      "nombre": "Parque Mundialito",
      "lat": -11.8576,
      "lon": -77.0682,
      "tipo": "poi",
      "reportes": []
    },
    "P4": {
      "nombre": "Condominios Parques",
      "lat": -11.859,
      "lon": -77.058,
      "tipo": "poi",
      "reportes": []
    },
    "P5": {
      "nombre": "Casa Reposo Santa Paula",
      "lat": -11.8565,
      "lon": -77.0595,
      "tipo": "poi",
      "reportes": []
    },
    "P6": {
      "nombre": "Parque El Pacífico",
      "lat": -11.8514,
      "lon": -77.0716,
      "tipo": "poi",
      "reportes": []
    },
    "P7": {
      "nombre": "Spa El Roble",
      "lat": -11.8495,
      "lon": -77.073,
      "tipo": "poi",
      "reportes": []
    },
    "P8": {
      "nombre": "Colegio Carabayllo",
      "lat": -11.843,
      "lon": -77.0615,
      "tipo": "poi",
      "reportes": []
    },
    "P9": {
      "nombre": "Polideportivo Perú Gol",
      "lat": -11.8481,
      "lon": -77.0736,
      "tipo": "poi",
      "reportes": []
    },
    "P10": {
      "nombre": "Tranquera Santa Rosa",
      "lat": -11.854,
      "lon": -77.068,
      "tipo": "poi",
      "reportes": []
    },
    "P11": {
      "nombre": "Plaza Vea",
      "lat": -11.8631,
      "lon": -77.0719,
      "tipo": "poi",
      "reportes": []
    },
    "P12": {
      "nombre": "Hospital Sergio Bernales",
      "lat": -11.8556,
      "lon": -77.0654,
      "tipo": "poi",
      "reportes": []
    },
    "P13": {
      "nombre": "Mercado Ciudad Pescador",
      "lat": -11.8598,
      "lon": -77.0689,
      "tipo": "poi",
      "reportes": []
    },
    "P14": {
      "nombre": "Paradero Panamericana",
      "lat": -11.8642,
      "lon": -77.0728,
      "tipo": "poi",
      "reportes": []
    },
    "P15": {
      "nombre": "Municipalidad",
      "lat": -11.8589,
      "lon": -77.0711,
      "tipo": "poi",
      "reportes": []
    },
    "P16": {
      "nombre": "Banco de la Nación",
      "lat": -11.8625,
      "lon": -77.0708,
      "tipo": "poi",
      "reportes": []
    },
    "P17": {
      "nombre": "Comisaría",
      "lat": -11.8612,
      "lon": -77.0695,
      "tipo": "poi",
      "reportes": []
    },
    "P18": {
      "nombre": "Mega Plaza",
      "lat": -11.8498,
      "lon": -77.0615,
      "tipo": "poi",
      "reportes": []
    },
    "I1": {
      "nombre": "Cruce Calle La Victoria & Avenida Ricardo Palma",
      "lat": -11.865745,
      "lon": -77.079265,
      "tipo": "interseccion",
      "reportes": []
    },
    "I2": {
      "nombre": "Cruce Calle La Victoria & Jirón Venezuela",
      "lat": -11.866915,
      "lon": -77.07816,
      "tipo": "interseccion",
      "reportes": []
    },
    "I3": {
      "nombre": "Cruce Calle La Victoria & Calle La Victoria",
      "lat": -11.867285,
      "lon": -77.077809,
      "tipo": "interseccion",
      "reportes": []
    },
    "I4": {
      "nombre": "Cruce Avenida Sucre & Jirón Venezuela",
      "lat": -11.86654,
      "lon": -77.077794,
      "tipo": "interseccion",
      "reportes": []
    },
    "I5": {
      "nombre": "Cruce Avenida Sucre & Avenida Ricardo Palma",
      "lat": -11.865425,
      "lon": -77.078941,
      "tipo": "interseccion",
      "reportes": []
    },
    "I6": {
      "nombre": "Cruce Avenida Sucre & Avenida Cesar Vallejo",
      "lat": -11.864741,
      "lon": -77.079553,
      "tipo": "interseccion",
      "reportes": []
    },
    "I7": {
      "nombre": "Cruce Calle Platón & Calle Platón",
      "lat": -11.867171,
      "lon": -77.073109,
      "tipo": "interseccion",
      "reportes": []
    },
    "I8": {
      "nombre": "Cruce Calle Platón & Calle_way/227828424",
      "lat": -11.867579,
      "lon": -77.073761,
      "tipo": "interseccion",
      "reportes": []
    },
    "I9": {
      "nombre": "Cruce Calle Rollin Thorn & Avenida Puente Piedra",
      "lat": -11.866343,
      "lon": -77.073558,
      "tipo": "interseccion",
      "reportes": []
    },
    "I10": {
      "nombre": "Cruce Calle Rollin Thorn & Calle José Chávez",
      "lat": -11.866666,
      "lon": -77.074024,
      "tipo": "interseccion",
      "reportes": []
    },
    "I11": {
      "nombre": "Cruce Calle Rollin Thorn & Calle_way/227819277",
      "lat": -11.867374,
      "lon": -77.0745,
      "tipo": "interseccion",
      "reportes": []
    },
    "I12": {
      "nombre": "Cruce Calle Rollin Thorn & Calle Santo Domingo",
      "lat": -11.867912,
      "lon": -77.074653,
      "tipo": "interseccion",
      "reportes": []
    },
    "I13": {
      "nombre": "Cruce Avenida Buenos Aires & Calle Santo Domingo",
      "lat": -11.868453,
      "lon": -77.075126,
      "tipo": "interseccion",
      "reportes": []
    },
    "I14": {
      "nombre": "Cruce Avenida Buenos Aires & Calle_way/227823330",
      "lat": -11.868189,
      "lon": -77.075401,
      "tipo": "interseccion",
      "reportes": []
    },
    "I15": {
      "nombre": "Cruce Avenida Buenos Aires & Calle Progreso",
      "lat": -11.867755,
      "lon": -77.075853,
      "tipo": "interseccion",
      "reportes": []
    },
    "I16": {
      "nombre": "Cruce Avenida Buenos Aires & Jirón Alfonso Ugarte",
      "lat": -11.867204,
      "lon": -77.076428,
      "tipo": "interseccion",
      "reportes": []
    },
    "I17": {
      "nombre": "Cruce Avenida Buenos Aires & Calle Leoncio Prado",
      "lat": -11.866863,
      "lon": -77.076779,
      "tipo": "interseccion",
      "reportes": []
    },
    "I18": {
      "nombre": "Cruce Avenida Buenos Aires & Calle 9 de Julio",
      "lat": -11.866571,
      "lon": -77.077078,
      "tipo": "interseccion",
      "reportes": []
    },
    "I19": {
      "nombre": "Cruce Avenida Buenos Aires & Avenida Lecaros",
      "lat": -11.866383,
      "lon": -77.077278,
      "tipo": "interseccion",
      "reportes": []
    },
    "I20": {
      "nombre": "Cruce Avenida Buenos Aires & Avenida Buenos Aires",
      "lat": -11.866335,
      "lon": -77.077328,
      "tipo": "interseccion",
      "reportes": []
    },
    "I21": {
      "nombre": "Cruce Jirón San Octavio & Avenida Lecaros",
      "lat": -11.859122,
      "lon": -77.069523,
      "tipo": "interseccion",
      "reportes": []
    },
    "I22": {
      "nombre": "Cruce Jirón San Octavio & Calle 2",
      "lat": -11.860369,
      "lon": -77.067988,
      "tipo": "interseccion",
      "reportes": []
    },
    "I23": {
      "nombre": "Cruce Jirón San Octavio & Calle 4",
      "lat": -11.861481,
      "lon": -77.06659,
      "tipo": "interseccion",
      "reportes": []
    },
    "I24": {
      "nombre": "Cruce Jirón San Octavio & Calle Las Vegas",
      "lat": -11.862641,
      "lon": -77.064878,
      "tipo": "interseccion",
      "reportes": []
    },
    "I25": {
      "nombre": "Cruce Pasaje Quinta & Avenida Lecaros",
      "lat": -11.857631,
      "lon": -77.068293,
      "tipo": "interseccion",
      "reportes": []
    },
    "I26": {
      "nombre": "Cruce Pasaje Quinta & Calle 4",
      "lat": -11.859995,
      "lon": -77.065373,
      "tipo": "interseccion",
      "reportes": []
    },
    "I27": {
      "nombre": "Cruce Calle La Victoria & Calle Leoncio Prado",
      "lat": -11.86762,
      "lon": -77.07751,
      "tipo": "interseccion",
      "reportes": []
    },
    "I28": {
      "nombre": "Cruce Calle La Victoria & Jirón Alfonso Ugarte",
      "lat": -11.867968,
      "lon": -77.077191,
      "tipo": "interseccion",
      "reportes": []
    },
    "I29": {
      "nombre": "Cruce Calle La Victoria & Calle Progreso",
      "lat": -11.868567,
      "lon": -77.076642,
      "tipo": "interseccion",
      "reportes": []
    },
    "I30": {
      "nombre": "Cruce Avenida Industrial & Calle 4",
      "lat": -11.863871,
      "lon": -77.067965,
      "tipo": "interseccion",
      "reportes": []
    },
    "I31": {
      "nombre": "Cruce Avenida Industrial & Calle 15",
      "lat": -11.865095,
      "lon": -77.067461,
      "tipo": "interseccion",
      "reportes": []
    },
    "I32": {
      "nombre": "Cruce Avenida Industrial & Calle Las Vegas",
      "lat": -11.867128,
      "lon": -77.066124,
      "tipo": "interseccion",
      "reportes": []
    },
    "I33": {
      "nombre": "Cruce Calle Las Vegas & Avenida Santa Josefina",
      "lat": -11.868892,
      "lon": -77.068894,
      "tipo": "interseccion",
      "reportes": []
    },
    "I34": {
      "nombre": "Cruce Calle Las Vegas & Calle_way/1184411026",
      "lat": -11.86719,
      "lon": -77.066224,
      "tipo": "interseccion",
      "reportes": []
    },
    "I35": {
      "nombre": "Cruce Calle Las Vegas & Avenida San Pedro de Choque",
      "lat": -11.866193,
      "lon": -77.065252,
      "tipo": "interseccion",
      "reportes": []
    },
    "I36": {
      "nombre": "Cruce Calle Las Vegas & Calle_way/1184374103",
      "lat": -11.864998,
      "lon": -77.065163,
      "tipo": "interseccion",
      "reportes": []
    },
    "I37": {
      "nombre": "Cruce Calle Las Vegas & Avenida San Juan de Dios",
      "lat": -11.864072,
      "lon": -77.065094,
      "tipo": "interseccion",
      "reportes": []
    },
    "I38": {
      "nombre": "Cruce Calle Las Vegas & Avenida San Juan de Dios",
      "lat": -11.863943,
      "lon": -77.065084,
      "tipo": "interseccion",
      "reportes": []
    },
    "I39": {
      "nombre": "Cruce Calle Las Vegas & Calle 7",
      "lat": -11.860332,
      "lon": -77.063164,
      "tipo": "interseccion",
      "reportes": []
    },
    "I40": {
      "nombre": "Cruce Calle 7 & Calle_way/570356427",
      "lat": -11.859219,
      "lon": -77.064135,
      "tipo": "interseccion",
      "reportes": []
    },
    "I41": {
      "nombre": "Cruce Calle 7 & Calle 4",
      "lat": -11.859098,
      "lon": -77.064602,
      "tipo": "interseccion",
      "reportes": []
    },
    "I42": {
      "nombre": "Cruce Calle 2 & Avenida San Juan de Dios",
      "lat": -11.863743,
      "lon": -77.069715,
      "tipo": "interseccion",
      "reportes": []
    },
    "I43": {
      "nombre": "Cruce Calle 2 & Avenida San Juan de Dios",
      "lat": -11.863598,
      "lon": -77.069708,
      "tipo": "interseccion",
      "reportes": []
    },
    "I44": {
      "nombre": "Cruce Calle 2 & Jirón San Pedro",
      "lat": -11.862622,
      "lon": -77.069645,
      "tipo": "interseccion",
      "reportes": []
    },
    "I45": {
      "nombre": "Cruce Jirón San Pedro & Avenida Lecaros",
      "lat": -11.861511,
      "lon": -77.071523,
      "tipo": "interseccion",
      "reportes": []
    },
    "I46": {
      "nombre": "Cruce Calle La Esperanza & Calle Las Tunas",
      "lat": -11.869453,
      "lon": -77.074255,
      "tipo": "interseccion",
      "reportes": []
    },
    "I47": {
      "nombre": "Cruce Calle La Esperanza & Calle_way/227819280",
      "lat": -11.870181,
      "lon": -77.074994,
      "tipo": "interseccion",
      "reportes": []
    },
    "I48": {
      "nombre": "Cruce Calle La Esperanza & Calle La Victoria",
      "lat": -11.870978,
      "lon": -77.07591,
      "tipo": "interseccion",
      "reportes": []
    },
    "I49": {
      "nombre": "Cruce Calle Santa Josefina & Avenida Santa Josefina",
      "lat": -11.866439,
      "lon": -77.070683,
      "tipo": "interseccion",
      "reportes": []
    },
    "I50": {
      "nombre": "Cruce Calle Santa Josefina & Avenida Santa Josefina",
      "lat": -11.866355,
      "lon": -77.07055,
      "tipo": "interseccion",
      "reportes": []
    },
    "I51": {
      "nombre": "Cruce Calle 15 & Calle Las Vegas",
      "lat": -11.866312,
      "lon": -77.069379,
      "tipo": "interseccion",
      "reportes": []
    },
    "I52": {
      "nombre": "Cruce Calle 15 & Calle 7",
      "lat": -11.865739,
      "lon": -77.068475,
      "tipo": "interseccion",
      "reportes": []
    },
    "I53": {
      "nombre": "Cruce Calle 15 & Calle_way/1184411026",
      "lat": -11.865166,
      "lon": -77.067573,
      "tipo": "interseccion",
      "reportes": []
    },
    "I54": {
      "nombre": "Cruce Calle Las Vegas & Avenida San Juan de Dios",
      "lat": -11.863654,
      "lon": -77.070922,
      "tipo": "interseccion",
      "reportes": []
    },
    "I55": {
      "nombre": "Cruce Calle Las Vegas & Avenida San Juan de Dios",
      "lat": -11.863806,
      "lon": -77.070878,
      "tipo": "interseccion",
      "reportes": []
    },
    "I56": {
      "nombre": "Cruce Calle Las Vegas & Calle Santa Josefina",
      "lat": -11.865823,
      "lon": -77.069698,
      "tipo": "interseccion",
      "reportes": []
    },
    "I57": {
      "nombre": "Cruce Calle Las Vegas & Calle 14",
      "lat": -11.86671,
      "lon": -77.069174,
      "tipo": "interseccion",
      "reportes": []
    },
    "I58": {
      "nombre": "Cruce Calle 7 & Avenida San Juan de Dios",
      "lat": -11.863762,
      "lon": -77.069416,
      "tipo": "interseccion",
      "reportes": []
    },
    "I59": {
      "nombre": "Cruce José Carlos Mariátegui & Avenida Ricardo Palma",
      "lat": -11.867047,
      "lon": -77.080536,
      "tipo": "interseccion",
      "reportes": []
    },
    "I60": {
      "nombre": "Cruce José Carlos Mariátegui & Jirón Lima",
      "lat": -11.868121,
      "lon": -77.08027,
      "tipo": "interseccion",
      "reportes": []
    },
    "I61": {
      "nombre": "Cruce Jirón Ramon Castilla & Avenida Ricardo Palma",
      "lat": -11.866743,
      "lon": -77.080235,
      "tipo": "interseccion",
      "reportes": []
    },
    "I62": {
      "nombre": "Cruce Jirón Ramon Castilla & Jirón Venezuela",
      "lat": -11.867833,
      "lon": -77.079119,
      "tipo": "interseccion",
      "reportes": []
    },
    "I63": {
      "nombre": "Cruce Jirón Ramon Castilla & Calle 9 de Julio",
      "lat": -11.868197,
      "lon": -77.078761,
      "tipo": "interseccion",
      "reportes": []
    },
    "I64": {
      "nombre": "Cruce Calle 9 de Julio & Pasaje La Victoria",
      "lat": -11.867437,
      "lon": -77.077962,
      "tipo": "interseccion",
      "reportes": []
    },
    "I65": {
      "nombre": "Cruce Calle 9 de Julio & Calle José Galvez",
      "lat": -11.867714,
      "lon": -77.07824,
      "tipo": "interseccion",
      "reportes": []
    },
    "I66": {
      "nombre": "Cruce Calle 9 de Julio & Calle_way/307197807",
      "lat": -11.868256,
      "lon": -77.078822,
      "tipo": "interseccion",
      "reportes": []
    },
    "I67": {
      "nombre": "Cruce Calle 9 de Julio & Jirón Progreso",
      "lat": -11.868617,
      "lon": -77.079136,
      "tipo": "interseccion",
      "reportes": []
    },
    "I68": {
      "nombre": "Cruce Calle 20 & Avenida Puente Piedra",
      "lat": -11.867537,
      "lon": -77.072769,
      "tipo": "interseccion",
      "reportes": []
    },
    "I69": {
      "nombre": "Cruce Calle 20 & Avenida Saenz Peña",
      "lat": -11.868792,
      "lon": -77.073776,
      "tipo": "interseccion",
      "reportes": []
    },
    "I70": {
      "nombre": "Cruce Calle San José & Calle José Chávez",
      "lat": -11.86538,
      "lon": -77.075136,
      "tipo": "interseccion",
      "reportes": []
    },
    "I71": {
      "nombre": "Cruce Calle San José & Avenida Saenz Peña",
      "lat": -11.866255,
      "lon": -77.076299,
      "tipo": "interseccion",
      "reportes": []
    },
    "I72": {
      "nombre": "Cruce Calle Billinghurst & Avenida Saenz Peña",
      "lat": -11.865348,
      "lon": -77.076943,
      "tipo": "interseccion",
      "reportes": []
    },
    "I73": {
      "nombre": "Cruce Calle Billinghurst & Calle M. Garay",
      "lat": -11.864389,
      "lon": -77.075943,
      "tipo": "interseccion",
      "reportes": []
    },
    "I74": {
      "nombre": "Cruce Calle José Galvez & Jirón Alfonso Ugarte",
      "lat": -11.868354,
      "lon": -77.07758,
      "tipo": "interseccion",
      "reportes": []
    },
    "I75": {
      "nombre": "Cruce Calle José Galvez & Jirón Venezuela",
      "lat": -11.86734,
      "lon": -77.078605,
      "tipo": "interseccion",
      "reportes": []
    },
    "I76": {
      "nombre": "Cruce Calle José Galvez & Avenida Ricardo Palma",
      "lat": -11.866247,
      "lon": -77.079773,
      "tipo": "interseccion",
      "reportes": []
    },
    "I77": {
      "nombre": "Cruce Calle José Galvez & Calle Circunvalación",
      "lat": -11.865923,
      "lon": -77.080108,
      "tipo": "interseccion",
      "reportes": []
    },
    "I78": {
      "nombre": "Cruce Jirón Carmen Alto & Avenida Ricardo Palma",
      "lat": -11.867962,
      "lon": -77.081378,
      "tipo": "interseccion",
      "reportes": []
    },
    "I79": {
      "nombre": "Cruce Jirón Carmen Alto & Calle Carmen Alto",
      "lat": -11.86804,
      "lon": -77.081269,
      "tipo": "interseccion",
      "reportes": []
    },
    "I80": {
      "nombre": "Cruce Jirón Carmen Alto & Jirón Progreso",
      "lat": -11.86836,
      "lon": -77.079996,
      "tipo": "interseccion",
      "reportes": []
    },
    "I81": {
      "nombre": "Cruce Jirón Lima & Avenida Ricardo Palma",
      "lat": -11.867416,
      "lon": -77.08096,
      "tipo": "interseccion",
      "reportes": []
    },
    "I82": {
      "nombre": "Cruce Avenida Ricardo Palma & Avenida Puente Piedra",
      "lat": -11.863219,
      "lon": -77.076649,
      "tipo": "interseccion",
      "reportes": []
    },
    "I83": {
      "nombre": "Cruce Avenida Ricardo Palma & Calle Francisco Bolognesi",
      "lat": -11.864043,
      "lon": -77.077487,
      "tipo": "interseccion",
      "reportes": []
    },
    "I84": {
      "nombre": "Cruce Calle M. Garay & Calle Dos de Mayo",
      "lat": -11.863971,
      "lon": -77.07636,
      "tipo": "interseccion",
      "reportes": []
    },
    "I85": {
      "nombre": "Cruce Calle M. Garay & Calle José Chávez",
      "lat": -11.864977,
      "lon": -77.075371,
      "tipo": "interseccion",
      "reportes": []
    },
    "I86": {
      "nombre": "Cruce Calle Dos de Mayo & Calle Francisco Bolognesi",
      "lat": -11.864595,
      "lon": -77.076918,
      "tipo": "interseccion",
      "reportes": []
    },
    "I87": {
      "nombre": "Cruce Calle Dos de Mayo & Avenida Saenz Peña",
      "lat": -11.865056,
      "lon": -77.077312,
      "tipo": "interseccion",
      "reportes": []
    },
    "I88": {
      "nombre": "Cruce Calle José Chávez & Avenida Lecaros",
      "lat": -11.86503,
      "lon": -77.075318,
      "tipo": "interseccion",
      "reportes": []
    },
    "I89": {
      "nombre": "Cruce Calle José Chávez & Calle Santa Lucía",
      "lat": -11.86559,
      "lon": -77.074931,
      "tipo": "interseccion",
      "reportes": []
    },
    "I90": {
      "nombre": "Cruce Calle Santa Lucía & Calle Santa Lucía",
      "lat": -11.866981,
      "lon": -77.075597,
      "tipo": "interseccion",
      "reportes": []
    },
    "I91": {
      "nombre": "Cruce Calle Santa Lucía & Avenida San Juan de Dios",
      "lat": -11.865131,
      "lon": -77.074445,
      "tipo": "interseccion",
      "reportes": []
    },
    "I92": {
      "nombre": "Cruce Jirón Venezuela & Avenida Buenos Aires",
      "lat": -11.8662,
      "lon": -77.077463,
      "tipo": "interseccion",
      "reportes": []
    },
    "I93": {
      "nombre": "Cruce Avenida Santa Josefina & Avenida San Juan de Dios",
      "lat": -11.863928,
      "lon": -77.071903,
      "tipo": "interseccion",
      "reportes": []
    },
    "I94": {
      "nombre": "Cruce Avenida Santa Josefina & Avenida San Juan de Dios",
      "lat": -11.864085,
      "lon": -77.071837,
      "tipo": "interseccion",
      "reportes": []
    },
    "I95": {
      "nombre": "Cruce Calle_way/111882827 & Avenida San Pedro de Choque",
      "lat": -11.866945,
      "lon": -77.060983,
      "tipo": "interseccion",
      "reportes": []
    },
    "I96": {
      "nombre": "Cruce Calle_way/111882827 & Calle_way/263091521",
      "lat": -11.866554,
      "lon": -77.061033,
      "tipo": "interseccion",
      "reportes": []
    },
    "I97": {
      "nombre": "Cruce Calle_way/111882827 & Calle_way/602715636",
      "lat": -11.86617,
      "lon": -77.061063,
      "tipo": "interseccion",
      "reportes": []
    },
    "I98": {
      "nombre": "Cruce Calle_way/111882827 & Calle_way/602715623",
      "lat": -11.866148,
      "lon": -77.061065,
      "tipo": "interseccion",
      "reportes": []
    },
    "I99": {
      "nombre": "Cruce Calle_way/111882827 & Calle_way/263095132",
      "lat": -11.865737,
      "lon": -77.061097,
      "tipo": "interseccion",
      "reportes": []
    },
    "I100": {
      "nombre": "Cruce Calle_way/111882827 & Calle_way/263091526",
      "lat": -11.86548,
      "lon": -77.061117,
      "tipo": "interseccion",
      "reportes": []
    },
    "I101": {
      "nombre": "Cruce Calle_way/111882827 & Calle_way/263091534",
      "lat": -11.86497,
      "lon": -77.061157,
      "tipo": "interseccion",
      "reportes": []
    },
    "I102": {
      "nombre": "Cruce Calle_way/111882827 & Calle_way/688944316",
      "lat": -11.864446,
      "lon": -77.061199,
      "tipo": "interseccion",
      "reportes": []
    },
    "I103": {
      "nombre": "Cruce Calle_way/111882827 & Avenida San Juan de Dios",
      "lat": -11.863958,
      "lon": -77.061218,
      "tipo": "interseccion",
      "reportes": []
    },
    "I104": {
      "nombre": "Cruce Avenida Puente Piedra & Calle Los Lirios",
      "lat": -11.868766,
      "lon": -77.071976,
      "tipo": "interseccion",
      "reportes": []
    },
    "I105": {
      "nombre": "Cruce Avenida Puente Piedra & Calle 3",
      "lat": -11.869581,
      "lon": -77.07145,
      "tipo": "interseccion",
      "reportes": []
    },
    "I106": {
      "nombre": "Cruce Calle Carmen Alto & Calle_way/872928531",
      "lat": -11.869064,
      "lon": -77.082665,
      "tipo": "interseccion",
      "reportes": []
    },
    "I107": {
      "nombre": "Cruce Calle Carmen Alto & Calle_way/872928530",
      "lat": -11.86949,
      "lon": -77.08368,
      "tipo": "interseccion",
      "reportes": []
    },
    "I108": {
      "nombre": "Cruce Avenida Puente Piedra & Calle Trinitarias",
      "lat": -11.861315,
      "lon": -77.079063,
      "tipo": "interseccion",
      "reportes": []
    },
    "I109": {
      "nombre": "Cruce Avenida Puente Piedra & Calle Faustino Rodriguez Sarmiento",
      "lat": -11.862063,
      "lon": -77.07811,
      "tipo": "interseccion",
      "reportes": []
    },
    "I110": {
      "nombre": "Cruce Avenida Puente Piedra & Avenida Cesar Vallejo",
      "lat": -11.862702,
      "lon": -77.077308,
      "tipo": "interseccion",
      "reportes": []
    },
    "I111": {
      "nombre": "Cruce Avenida Puente Piedra & Calle Dos de Mayo",
      "lat": -11.863656,
      "lon": -77.076089,
      "tipo": "interseccion",
      "reportes": []
    },
    "I112": {
      "nombre": "Cruce Avenida Puente Piedra & Avenida Lecaros",
      "lat": -11.86469,
      "lon": -77.074843,
      "tipo": "interseccion",
      "reportes": []
    },
    "I113": {
      "nombre": "Cruce Calle Ancash & Avenida Buenos Aires",
      "lat": -11.860122,
      "lon": -77.083056,
      "tipo": "interseccion",
      "reportes": []
    },
    "I114": {
      "nombre": "Cruce Calle Ancash & Avenida Saenz Peña",
      "lat": -11.859888,
      "lon": -77.082826,
      "tipo": "interseccion",
      "reportes": []
    },
    "I115": {
      "nombre": "Cruce Avenida Puente Piedra & Avenida Puente Piedra",
      "lat": -11.863149,
      "lon": -77.076284,
      "tipo": "interseccion",
      "reportes": []
    },
    "I116": {
      "nombre": "Cruce Avenida Puente Piedra & Pasaje Leonidas Gutierrez",
      "lat": -11.862066,
      "lon": -77.077594,
      "tipo": "interseccion",
      "reportes": []
    },
    "I117": {
      "nombre": "Cruce Avenida Puente Piedra & Avenida Puente Piedra",
      "lat": -11.861489,
      "lon": -77.078325,
      "tipo": "interseccion",
      "reportes": []
    },
    "I118": {
      "nombre": "Cruce Calle Juan Velazco & Avenida Copacabana",
      "lat": -11.847603,
      "lon": -77.078575,
      "tipo": "interseccion",
      "reportes": []
    },
    "I119": {
      "nombre": "Cruce Calle Juan Velazco & Calle Huánuco",
      "lat": -11.848435,
      "lon": -77.079397,
      "tipo": "interseccion",
      "reportes": []
    },
    "I120": {
      "nombre": "Cruce Avenida Cesar Vallejo & Calle_way/567728471",
      "lat": -11.862959,
      "lon": -77.077591,
      "tipo": "interseccion",
      "reportes": []
    },
    "I121": {
      "nombre": "Cruce Avenida Cesar Vallejo & Calle Francisco Bolognesi",
      "lat": -11.863422,
      "lon": -77.0781,
      "tipo": "interseccion",
      "reportes": []
    },
    "I122": {
      "nombre": "Cruce Avenida Cesar Vallejo & Avenida Saenz Peña",
      "lat": -11.863917,
      "lon": -77.078646,
      "tipo": "interseccion",
      "reportes": []
    },
    "I123": {
      "nombre": "Cruce Avenida Cesar Vallejo & Avenida Saenz Peña",
      "lat": -11.864078,
      "lon": -77.078822,
      "tipo": "interseccion",
      "reportes": []
    },
    "I124": {
      "nombre": "Cruce Avenida Cesar Vallejo & Avenida Buenos Aires",
      "lat": -11.864407,
      "lon": -77.079185,
      "tipo": "interseccion",
      "reportes": []
    },
    "I125": {
      "nombre": "Cruce Avenida Cesar Vallejo & Calle La Victoria",
      "lat": -11.865063,
      "lon": -77.079908,
      "tipo": "interseccion",
      "reportes": []
    },
    "I126": {
      "nombre": "Cruce Calle Faustino Rodriguez Sarmiento & Calle_way/567728471",
      "lat": -11.862308,
      "lon": -77.078381,
      "tipo": "interseccion",
      "reportes": []
    },
    "I127": {
      "nombre": "Cruce Calle Faustino Rodriguez Sarmiento & Calle Francisco Bolognesi",
      "lat": -11.862775,
      "lon": -77.078896,
      "tipo": "interseccion",
      "reportes": []
    },
    "I128": {
      "nombre": "Cruce Calle Faustino Rodriguez Sarmiento & Avenida Saenz Peña",
      "lat": -11.863228,
      "lon": -77.079377,
      "tipo": "interseccion",
      "reportes": []
    },
    "I129": {
      "nombre": "Cruce Calle 3 & Calle_way/672205100",
      "lat": -11.869803,
      "lon": -77.071795,
      "tipo": "interseccion",
      "reportes": []
    },
    "I130": {
      "nombre": "Cruce Calle 3 & Calle 2",
      "lat": -11.869845,
      "lon": -77.071861,
      "tipo": "interseccion",
      "reportes": []
    },
    "I131": {
      "nombre": "Cruce Calle San Pedro & Calle Progreso",
      "lat": -11.868187,
      "lon": -77.076273,
      "tipo": "interseccion",
      "reportes": []
    },
    "I132": {
      "nombre": "Cruce Calle San Pedro & Calle_way/227823330",
      "lat": -11.86873,
      "lon": -77.075733,
      "tipo": "interseccion",
      "reportes": []
    },
    "I133": {
      "nombre": "Cruce Calle San Pedro & Calle Santo Domingo",
      "lat": -11.868884,
      "lon": -77.075557,
      "tipo": "interseccion",
      "reportes": []
    },
    "I134": {
      "nombre": "Cruce Avenida Puente Piedra & Avenida Puente Piedra",
      "lat": -11.856617,
      "lon": -77.084945,
      "tipo": "interseccion",
      "reportes": []
    },
    "I135": {
      "nombre": "Cruce Calle Circunvalación & Avenida Cesar Vallejo",
      "lat": -11.865357,
      "lon": -77.080231,
      "tipo": "interseccion",
      "reportes": []
    },
    "I136": {
      "nombre": "Cruce Calle Circunvalación & Calle La Victoria",
      "lat": -11.864134,
      "lon": -77.080767,
      "tipo": "interseccion",
      "reportes": []
    },
    "I137": {
      "nombre": "Cruce Avenida Saenz Peña & Calle Las Tunas",
      "lat": -11.869048,
      "lon": -77.073668,
      "tipo": "interseccion",
      "reportes": []
    },
    "I138": {
      "nombre": "Cruce Calle_way/111928060 & Avenida José Carlos Mariategui",
      "lat": -11.846891,
      "lon": -77.084395,
      "tipo": "interseccion",
      "reportes": []
    },
    "I139": {
      "nombre": "Cruce Calle_way/111928060 & Calle_way/163864939",
      "lat": -11.847188,
      "lon": -77.084047,
      "tipo": "interseccion",
      "reportes": []
    },
    "I140": {
      "nombre": "Cruce Calle_way/111928060 & Calle Los Cocos",
      "lat": -11.848416,
      "lon": -77.082618,
      "tipo": "interseccion",
      "reportes": []
    },
    "I141": {
      "nombre": "Cruce Calle_way/111928060 & Calle Los Mangos",
      "lat": -11.849179,
      "lon": -77.081682,
      "tipo": "interseccion",
      "reportes": []
    },
    "I142": {
      "nombre": "Cruce Calle 1 & Calle 2",
      "lat": -11.869423,
      "lon": -77.072118,
      "tipo": "interseccion",
      "reportes": []
    },
    "I143": {
      "nombre": "Cruce Calle 1 & Avenida Saenz Peña",
      "lat": -11.869832,
      "lon": -77.072673,
      "tipo": "interseccion",
      "reportes": []
    },
    "I144": {
      "nombre": "Cruce Calle Los Eucaliptos & Pasaje Central",
      "lat": -11.852445,
      "lon": -77.086041,
      "tipo": "interseccion",
      "reportes": []
    },
    "I145": {
      "nombre": "Cruce Calle Los Eucaliptos & Calle Los Duraznos",
      "lat": -11.852805,
      "lon": -77.085765,
      "tipo": "interseccion",
      "reportes": []
    },
    "I146": {
      "nombre": "Cruce Calle Los Eucaliptos & Calle_way/536204955",
      "lat": -11.853512,
      "lon": -77.085392,
      "tipo": "interseccion",
      "reportes": []
    },
    "I147": {
      "nombre": "Cruce Calle Los Eucaliptos & Avenida Las Viñas",
      "lat": -11.854617,
      "lon": -77.084806,
      "tipo": "interseccion",
      "reportes": []
    },
    "I148": {
      "nombre": "Cruce Calle_way/111936258 & Calle_way/999292881",
      "lat": -11.848408,
      "lon": -77.078787,
      "tipo": "interseccion",
      "reportes": []
    },
    "I149": {
      "nombre": "Cruce Calle_way/111936258 & Calle_way/999292882",
      "lat": -11.848732,
      "lon": -77.079085,
      "tipo": "interseccion",
      "reportes": []
    },
    "I150": {
      "nombre": "Cruce Calle_way/111936258 & Calle_way/999292883",
      "lat": -11.848786,
      "lon": -77.079144,
      "tipo": "interseccion",
      "reportes": []
    },
    "I151": {
      "nombre": "Cruce Calle_way/111936258 & Calle_way/163864964",
      "lat": -11.849153,
      "lon": -77.07954,
      "tipo": "interseccion",
      "reportes": []
    },
    "I152": {
      "nombre": "Cruce Avenida Clara Balbuena & Avenida Copacabana",
      "lat": -11.849987,
      "lon": -77.076905,
      "tipo": "interseccion",
      "reportes": []
    },
    "I153": {
      "nombre": "Cruce Avenida Clara Balbuena & Avenida Copacabana",
      "lat": -11.850075,
      "lon": -77.07699,
      "tipo": "interseccion",
      "reportes": []
    },
    "I154": {
      "nombre": "Cruce Avenida Clara Balbuena & Avenida Los Gladiolos",
      "lat": -11.851095,
      "lon": -77.078008,
      "tipo": "interseccion",
      "reportes": []
    },
    "I155": {
      "nombre": "Cruce Avenida Clara Balbuena & Calle_way/1208219079",
      "lat": -11.851209,
      "lon": -77.078117,
      "tipo": "interseccion",
      "reportes": []
    },
    "I156": {
      "nombre": "Cruce Avenida Clara Balbuena & Calle_way/306137728",
      "lat": -11.852202,
      "lon": -77.079067,
      "tipo": "interseccion",
      "reportes": []
    },
    "I157": {
      "nombre": "Cruce Avenida Clara Balbuena & Calle Los Girasoles",
      "lat": -11.852338,
      "lon": -77.079217,
      "tipo": "interseccion",
      "reportes": []
    },
    "I158": {
      "nombre": "Cruce Avenida Clara Balbuena & Calle_way/536204984",
      "lat": -11.853231,
      "lon": -77.080077,
      "tipo": "interseccion",
      "reportes": []
    },
    "I159": {
      "nombre": "Cruce Avenida Clara Balbuena & Calle Los Duraznos",
      "lat": -11.853576,
      "lon": -77.08041,
      "tipo": "interseccion",
      "reportes": []
    },
    "I160": {
      "nombre": "Cruce Avenida Clara Balbuena & Calle_way/536204992",
      "lat": -11.854415,
      "lon": -77.081201,
      "tipo": "interseccion",
      "reportes": []
    },
    "I161": {
      "nombre": "Cruce Avenida Clara Balbuena & Calle_way/306137686",
      "lat": -11.854837,
      "lon": -77.081577,
      "tipo": "interseccion",
      "reportes": []
    },
    "I162": {
      "nombre": "Cruce Calle Los Lirios & Avenida Saenz Peña",
      "lat": -11.869522,
      "lon": -77.072988,
      "tipo": "interseccion",
      "reportes": []
    },
    "I163": {
      "nombre": "Cruce Calle Los Lirios & Calle 2",
      "lat": -11.869041,
      "lon": -77.072365,
      "tipo": "interseccion",
      "reportes": []
    },
    "I164": {
      "nombre": "Cruce Avenida Lecaros & Calle_way/537211720",
      "lat": -11.854745,
      "lon": -77.066236,
      "tipo": "interseccion",
      "reportes": []
    },
    "I165": {
      "nombre": "Cruce Avenida Lecaros & Calle_way/1029163883",
      "lat": -11.855056,
      "lon": -77.066216,
      "tipo": "interseccion",
      "reportes": []
    },
    "I166": {
      "nombre": "Cruce Avenida Lecaros & Calle_way/327698120",
      "lat": -11.855215,
      "lon": -77.066303,
      "tipo": "interseccion",
      "reportes": []
    },
    "I167": {
      "nombre": "Cruce Avenida Lecaros & Calle_way/306137711",
      "lat": -11.856053,
      "lon": -77.066968,
      "tipo": "interseccion",
      "reportes": []
    },
    "I168": {
      "nombre": "Cruce Avenida Lecaros & Calle Los Manzanos",
      "lat": -11.856108,
      "lon": -77.067013,
      "tipo": "interseccion",
      "reportes": []
    },
    "I169": {
      "nombre": "Cruce Avenida Lecaros & Calle_way/306137730",
      "lat": -11.856412,
      "lon": -77.067277,
      "tipo": "interseccion",
      "reportes": []
    },
    "I170": {
      "nombre": "Cruce Avenida Lecaros & Calle_way/306137710",
      "lat": -11.857114,
      "lon": -77.067854,
      "tipo": "interseccion",
      "reportes": []
    },
    "I171": {
      "nombre": "Cruce Avenida Lecaros & Avenida Lecaros",
      "lat": -11.857355,
      "lon": -77.068059,
      "tipo": "interseccion",
      "reportes": []
    },
    "I172": {
      "nombre": "Cruce Calle Trinitarias & Avenida Saenz Peña",
      "lat": -11.862553,
      "lon": -77.080152,
      "tipo": "interseccion",
      "reportes": []
    },
    "I173": {
      "nombre": "Cruce Avenida José Carlos Mariategui & Calle_way/639204067",
      "lat": -11.84785,
      "lon": -77.085586,
      "tipo": "interseccion",
      "reportes": []
    },
    "I174": {
      "nombre": "Cruce Avenida José Carlos Mariategui & Calle_way/163864945",
      "lat": -11.847371,
      "lon": -77.084935,
      "tipo": "interseccion",
      "reportes": []
    },
    "I175": {
      "nombre": "Cruce Avenida José Carlos Mariategui & Calle_way/872866006",
      "lat": -11.846222,
      "lon": -77.08354,
      "tipo": "interseccion",
      "reportes": []
    },
    "I176": {
      "nombre": "Cruce Avenida José Carlos Mariategui & Calle_way/349654477",
      "lat": -11.846127,
      "lon": -77.08342,
      "tipo": "interseccion",
      "reportes": []
    },
    "I177": {
      "nombre": "Cruce Avenida José Carlos Mariategui & Calle_way/1415634896",
      "lat": -11.845381,
      "lon": -77.08253,
      "tipo": "interseccion",
      "reportes": []
    },
    "I178": {
      "nombre": "Cruce Avenida José Carlos Mariategui & Calle José María Egulen",
      "lat": -11.845228,
      "lon": -77.082347,
      "tipo": "interseccion",
      "reportes": []
    },
    "I179": {
      "nombre": "Cruce Avenida José Carlos Mariategui & Calle_way/163864914",
      "lat": -11.844792,
      "lon": -77.081844,
      "tipo": "interseccion",
      "reportes": []
    },
    "I180": {
      "nombre": "Cruce Avenida Puente Piedra & Avenida San Juan",
      "lat": -11.856964,
      "lon": -77.084516,
      "tipo": "interseccion",
      "reportes": []
    },
    "I181": {
      "nombre": "Cruce Avenida Puente Piedra & Pasaje El Porvenir",
      "lat": -11.857949,
      "lon": -77.083279,
      "tipo": "interseccion",
      "reportes": []
    },
    "I182": {
      "nombre": "Cruce Calle Francisco Bolognesi & Avenida Ricardo Palma",
      "lat": -11.863979,
      "lon": -77.077568,
      "tipo": "interseccion",
      "reportes": []
    },
    "I183": {
      "nombre": "Cruce Calle Francisco Bolognesi & Calle Francisco Bolognesi",
      "lat": -11.863678,
      "lon": -77.077838,
      "tipo": "interseccion",
      "reportes": []
    },
    "I184": {
      "nombre": "Cruce Calle 4 & Avenida San Juan de Dios",
      "lat": -11.86372,
      "lon": -77.068027,
      "tipo": "interseccion",
      "reportes": []
    },
    "I185": {
      "nombre": "Cruce Jirón Alfonso Ugarte & Calle_way/227819273",
      "lat": -11.867415,
      "lon": -77.076639,
      "tipo": "interseccion",
      "reportes": []
    },
    "I186": {
      "nombre": "Cruce Jirón Alfonso Ugarte & Pasaje La Victoria",
      "lat": -11.868068,
      "lon": -77.077293,
      "tipo": "interseccion",
      "reportes": []
    },
    "I187": {
      "nombre": "Cruce Jirón Alfonso Ugarte & Calle_way/1184972241",
      "lat": -11.868451,
      "lon": -77.077677,
      "tipo": "interseccion",
      "reportes": []
    },
    "I188": {
      "nombre": "Cruce Jirón Alfonso Ugarte & Calle_way/227821787",
      "lat": -11.86918,
      "lon": -77.078428,
      "tipo": "interseccion",
      "reportes": []
    },
    "I189": {
      "nombre": "Cruce Jirón Alfonso Ugarte & Jirón Circunvalación",
      "lat": -11.869623,
      "lon": -77.078902,
      "tipo": "interseccion",
      "reportes": []
    },
    "I190": {
      "nombre": "Cruce Pasaje Los Sauces & Avenida Buenos Aires",
      "lat": -11.859344,
      "lon": -77.083808,
      "tipo": "interseccion",
      "reportes": []
    },
    "I191": {
      "nombre": "Cruce Pasaje Los Sauces & Calle_way/603218700",
      "lat": -11.860028,
      "lon": -77.084444,
      "tipo": "interseccion",
      "reportes": []
    },
    "I192": {
      "nombre": "Cruce Calle Los Jazmines & Calle_way/163856020",
      "lat": -11.861954,
      "lon": -77.084777,
      "tipo": "interseccion",
      "reportes": []
    },
    "I193": {
      "nombre": "Cruce Calle Los Jazmines & Calle_way/603218710",
      "lat": -11.862305,
      "lon": -77.084508,
      "tipo": "interseccion",
      "reportes": []
    },
    "I194": {
      "nombre": "Cruce Calle Los Jazmines & Calle_way/163855964",
      "lat": -11.862543,
      "lon": -77.084327,
      "tipo": "interseccion",
      "reportes": []
    },
    "I195": {
      "nombre": "Cruce Calle Los Jazmines & Pasaje Tacna",
      "lat": -11.862934,
      "lon": -77.084034,
      "tipo": "interseccion",
      "reportes": []
    },
    "I196": {
      "nombre": "Cruce Calle Los Jazmines & Calle_way/163856008",
      "lat": -11.863072,
      "lon": -77.083893,
      "tipo": "interseccion",
      "reportes": []
    },
    "I197": {
      "nombre": "Cruce Calle Los Jazmines & Calle Los Geranios",
      "lat": -11.863945,
      "lon": -77.082908,
      "tipo": "interseccion",
      "reportes": []
    },
    "I198": {
      "nombre": "Cruce Calle Los Jazmines & Calle Héroes del Cenepa",
      "lat": -11.864207,
      "lon": -77.082571,
      "tipo": "interseccion",
      "reportes": []
    },
    "I199": {
      "nombre": "Cruce Calle Héroes del Cenepa & Avenida Buenos Aires",
      "lat": -11.862603,
      "lon": -77.080734,
      "tipo": "interseccion",
      "reportes": []
    },
    "I200": {
      "nombre": "Cruce Calle Héroes del Cenepa & Calle Camino Real",
      "lat": -11.862659,
      "lon": -77.080843,
      "tipo": "interseccion",
      "reportes": []
    },
    "I201": {
      "nombre": "Cruce Calle Héroes del Cenepa & Calle_way/163855977",
      "lat": -11.862972,
      "lon": -77.081406,
      "tipo": "interseccion",
      "reportes": []
    },
    "I202": {
      "nombre": "Cruce Calle Héroes del Cenepa & Calle Los Claveles",
      "lat": -11.863302,
      "lon": -77.081934,
      "tipo": "interseccion",
      "reportes": []
    },
    "I203": {
      "nombre": "Cruce Calle Héroes del Cenepa & Calle Los Tulipanes",
      "lat": -11.863924,
      "lon": -77.082373,
      "tipo": "interseccion",
      "reportes": []
    },
    "I204": {
      "nombre": "Cruce Calle Héroes del Cenepa & Pasaje Francisco Bolognesi",
      "lat": -11.864378,
      "lon": -77.082662,
      "tipo": "interseccion",
      "reportes": []
    },
    "I205": {
      "nombre": "Cruce Calle Héroes del Cenepa & Calle Las Margaritas",
      "lat": -11.864726,
      "lon": -77.082848,
      "tipo": "interseccion",
      "reportes": []
    },
    "I206": {
      "nombre": "Cruce Calle Héroes del Cenepa & Calle Las Amapolas",
      "lat": -11.865142,
      "lon": -77.083057,
      "tipo": "interseccion",
      "reportes": []
    },
    "I207": {
      "nombre": "Cruce Calle Héroes del Cenepa & Pasaje Los Cerezo",
      "lat": -11.865631,
      "lon": -77.083332,
      "tipo": "interseccion",
      "reportes": []
    },
    "I208": {
      "nombre": "Cruce Calle Héroes del Cenepa & Calle Las Palmeras",
      "lat": -11.865908,
      "lon": -77.083464,
      "tipo": "interseccion",
      "reportes": []
    },
    "I209": {
      "nombre": "Cruce Calle Héroes del Cenepa & Calle_way/307197828",
      "lat": -11.866216,
      "lon": -77.083616,
      "tipo": "interseccion",
      "reportes": []
    },
    "I210": {
      "nombre": "Cruce Calle Héroes del Cenepa & Calle_way/307197826",
      "lat": -11.866338,
      "lon": -77.083676,
      "tipo": "interseccion",
      "reportes": []
    },
    "I211": {
      "nombre": "Cruce Calle Héroes del Cenepa & Avenida Camino Real",
      "lat": -11.866654,
      "lon": -77.083867,
      "tipo": "interseccion",
      "reportes": []
    },
    "I212": {
      "nombre": "Cruce Avenida Camino Real & Calle_way/307197827",
      "lat": -11.866312,
      "lon": -77.084154,
      "tipo": "interseccion",
      "reportes": []
    },
    "I213": {
      "nombre": "Cruce Avenida Camino Real & Calle_way/307197829",
      "lat": -11.866298,
      "lon": -77.084985,
      "tipo": "interseccion",
      "reportes": []
    },
    "I214": {
      "nombre": "Cruce Avenida Camino Real & Calle_way/307197830",
      "lat": -11.865913,
      "lon": -77.08533,
      "tipo": "interseccion",
      "reportes": []
    },
    "I215": {
      "nombre": "Cruce Avenida Camino Real & Calle_way/163856008",
      "lat": -11.86574,
      "lon": -77.085939,
      "tipo": "interseccion",
      "reportes": []
    },
    "I216": {
      "nombre": "Cruce Calle Las Azucenas & Calle Las Amapolas",
      "lat": -11.86466,
      "lon": -77.08371,
      "tipo": "interseccion",
      "reportes": []
    },
    "I217": {
      "nombre": "Cruce Calle Las Azucenas & Calle Las Palmeras",
      "lat": -11.865365,
      "lon": -77.084099,
      "tipo": "interseccion",
      "reportes": []
    },
    "I218": {
      "nombre": "Cruce Calle Los Tulipanes & Calle_way/307197820",
      "lat": -11.863652,
      "lon": -77.08261,
      "tipo": "interseccion",
      "reportes": []
    },
    "I219": {
      "nombre": "Cruce Calle Los Tulipanes & Calle Los Rosales",
      "lat": -11.863276,
      "lon": -77.082895,
      "tipo": "interseccion",
      "reportes": []
    },
    "I220": {
      "nombre": "Cruce Calle_way/163855975 & Calle Los Claveles",
      "lat": -11.86243,
      "lon": -77.082559,
      "tipo": "interseccion",
      "reportes": []
    },
    "I221": {
      "nombre": "Cruce Calle_way/163855975 & Calle_way/163855984",
      "lat": -11.862887,
      "lon": -77.083206,
      "tipo": "interseccion",
      "reportes": []
    },
    "I222": {
      "nombre": "Cruce Calle_way/163855977 & Pasaje Tacna",
      "lat": -11.861768,
      "lon": -77.082396,
      "tipo": "interseccion",
      "reportes": []
    },
    "I223": {
      "nombre": "Cruce Calle_way/163855984 & Pasaje Tacna",
      "lat": -11.862535,
      "lon": -77.083449,
      "tipo": "interseccion",
      "reportes": []
    },
    "I224": {
      "nombre": "Cruce Calle_way/163855984 & Calle_way/163856020",
      "lat": -11.861522,
      "lon": -77.084195,
      "tipo": "interseccion",
      "reportes": []
    },
    "I225": {
      "nombre": "Cruce Pasaje Los Alhelíes & Calle Los Geranios",
      "lat": -11.864128,
      "lon": -77.083068,
      "tipo": "interseccion",
      "reportes": []
    },
    "I226": {
      "nombre": "Cruce Calle Los Claveles & Pasaje Tacna",
      "lat": -11.862073,
      "lon": -77.082814,
      "tipo": "interseccion",
      "reportes": []
    },
    "I227": {
      "nombre": "Cruce Calle Los Claveles & Calle Los Rosales",
      "lat": -11.862859,
      "lon": -77.082251,
      "tipo": "interseccion",
      "reportes": []
    },
    "I228": {
      "nombre": "Cruce Calle Las Margaritas & Calle Los Geranios",
      "lat": -11.864524,
      "lon": -77.08328,
      "tipo": "interseccion",
      "reportes": []
    },
    "I229": {
      "nombre": "Cruce Calle Las Amapolas & Calle Los Geranios",
      "lat": -11.864874,
      "lon": -77.083474,
      "tipo": "interseccion",
      "reportes": []
    },
    "I230": {
      "nombre": "Cruce Calle_way/163856008 & Calle Las Palmeras",
      "lat": -11.864902,
      "lon": -77.085434,
      "tipo": "interseccion",
      "reportes": []
    },
    "I231": {
      "nombre": "Cruce Pasaje Tacna & Avenida Buenos Aires",
      "lat": -11.861407,
      "lon": -77.081834,
      "tipo": "interseccion",
      "reportes": []
    },
    "I232": {
      "nombre": "Cruce Calle Las Palmeras & Calle Los Geranios",
      "lat": -11.865564,
      "lon": -77.083852,
      "tipo": "interseccion",
      "reportes": []
    },
    "I233": {
      "nombre": "Cruce Calle Las Palmeras & Calle_way/307197824",
      "lat": -11.865409,
      "lon": -77.084044,
      "tipo": "interseccion",
      "reportes": []
    },
    "I234": {
      "nombre": "Cruce Calle Las Palmeras & Calle_way/307197829",
      "lat": -11.865267,
      "lon": -77.084538,
      "tipo": "interseccion",
      "reportes": []
    },
    "I235": {
      "nombre": "Cruce Calle Las Palmeras & Calle_way/307197830",
      "lat": -11.865139,
      "lon": -77.08495,
      "tipo": "interseccion",
      "reportes": []
    },
    "I236": {
      "nombre": "Cruce Calle 2 & Avenida Lecaros",
      "lat": -11.857699,
      "lon": -77.068352,
      "tipo": "interseccion",
      "reportes": []
    },
    "I237": {
      "nombre": "Cruce Calle 2 & Avenida Lecaros",
      "lat": -11.857635,
      "lon": -77.068433,
      "tipo": "interseccion",
      "reportes": []
    },
    "I238": {
      "nombre": "Cruce Calle 2 & Calle_way/349649572",
      "lat": -11.857331,
      "lon": -77.068824,
      "tipo": "interseccion",
      "reportes": []
    },
    "I239": {
      "nombre": "Cruce Calle 2 & Calle_way/163857927",
      "lat": -11.857049,
      "lon": -77.069177,
      "tipo": "interseccion",
      "reportes": []
    },
    "I240": {
      "nombre": "Cruce Calle 2 & Calle_way/349650728",
      "lat": -11.856762,
      "lon": -77.069561,
      "tipo": "interseccion",
      "reportes": []
    },
    "I241": {
      "nombre": "Cruce Calle_way/163857881 & Calle Las Higueras",
      "lat": -11.859229,
      "lon": -77.079195,
      "tipo": "interseccion",
      "reportes": []
    },
    "I242": {
      "nombre": "Cruce Calle_way/163857881 & Calle Las Fresas",
      "lat": -11.859653,
      "lon": -77.078867,
      "tipo": "interseccion",
      "reportes": []
    },
    "I243": {
      "nombre": "Cruce Calle_way/163857884 & Calle Las Higueras",
      "lat": -11.85937,
      "lon": -77.079397,
      "tipo": "interseccion",
      "reportes": []
    },
    "I244": {
      "nombre": "Cruce Calle_way/163857884 & Calle_way/163857935",
      "lat": -11.858949,
      "lon": -77.079644,
      "tipo": "interseccion",
      "reportes": []
    },
    "I245": {
      "nombre": "Cruce Calle_way/163857885 & Calle_way/163857935",
      "lat": -11.858356,
      "lon": -77.078791,
      "tipo": "interseccion",
      "reportes": []
    },
    "I246": {
      "nombre": "Cruce Calle_way/163857885 & Calle_way/163857937",
      "lat": -11.857997,
      "lon": -77.079067,
      "tipo": "interseccion",
      "reportes": []
    },
    "I247": {
      "nombre": "Cruce Calle_way/163857891 & Calle_way/163857941",
      "lat": -11.857174,
      "lon": -77.076575,
      "tipo": "interseccion",
      "reportes": []
    },
    "I248": {
      "nombre": "Cruce Calle_way/163857891 & Calle A",
      "lat": -11.857974,
      "lon": -77.076193,
      "tipo": "interseccion",
      "reportes": []
    },
    "I249": {
      "nombre": "Cruce Calle_way/163857895 & Pasaje San Martín",
      "lat": -11.858155,
      "lon": -77.0809,
      "tipo": "interseccion",
      "reportes": []
    },
    "I250": {
      "nombre": "Cruce Calle_way/163857896 & Avenida San Martín de Porres",
      "lat": -11.855421,
      "lon": -77.078066,
      "tipo": "interseccion",
      "reportes": []
    },
    "I251": {
      "nombre": "Cruce Calle_way/163857896 & Calle_way/306137698",
      "lat": -11.855701,
      "lon": -77.077697,
      "tipo": "interseccion",
      "reportes": []
    },
    "I252": {
      "nombre": "Cruce Calle_way/163857896 & Calle 5",
      "lat": -11.855988,
      "lon": -77.07732,
      "tipo": "interseccion",
      "reportes": []
    },
    "I253": {
      "nombre": "Cruce Calle_way/163857896 & Calle_way/306137699",
      "lat": -11.856284,
      "lon": -77.076931,
      "tipo": "interseccion",
      "reportes": []
    },
    "I254": {
      "nombre": "Cruce Calle_way/163857896 & Calle_way/536206279",
      "lat": -11.856553,
      "lon": -77.076577,
      "tipo": "interseccion",
      "reportes": []
    },
    "I255": {
      "nombre": "Cruce Calle_way/163857896 & Calle_way/163857941",
      "lat": -11.856879,
      "lon": -77.076183,
      "tipo": "interseccion",
      "reportes": []
    },
    "I256": {
      "nombre": "Cruce Calle_way/163857896 & Calle A",
      "lat": -11.85792,
      "lon": -77.075707,
      "tipo": "interseccion",
      "reportes": []
    },
    "I257": {
      "nombre": "Cruce Avenida Palmitos & Avenida Perimétrica",
      "lat": -11.853578,
      "lon": -77.067615,
      "tipo": "interseccion",
      "reportes": []
    },
    "I258": {
      "nombre": "Cruce Avenida Palmitos & Calle_way/306137738",
      "lat": -11.853776,
      "lon": -77.067811,
      "tipo": "interseccion",
      "reportes": []
    },
    "I259": {
      "nombre": "Cruce Avenida Palmitos & Calle_way/539325985",
      "lat": -11.853882,
      "lon": -77.06792,
      "tipo": "interseccion",
      "reportes": []
    },
    "I260": {
      "nombre": "Cruce Avenida Palmitos & Calle_way/306137733",
      "lat": -11.854585,
      "lon": -77.068641,
      "tipo": "interseccion",
      "reportes": []
    },
    "I261": {
      "nombre": "Cruce Avenida Palmitos & Calle_way/306137735",
      "lat": -11.854754,
      "lon": -77.068826,
      "tipo": "interseccion",
      "reportes": []
    },
    "I262": {
      "nombre": "Cruce Avenida Palmitos & Calle 6",
      "lat": -11.855422,
      "lon": -77.069543,
      "tipo": "interseccion",
      "reportes": []
    },
    "I263": {
      "nombre": "Cruce Avenida Palmitos & Calle_way/306137710",
      "lat": -11.855491,
      "lon": -77.069618,
      "tipo": "interseccion",
      "reportes": []
    },
    "I264": {
      "nombre": "Cruce Avenida Palmitos & Calle Los Sauces",
      "lat": -11.855991,
      "lon": -77.07019,
      "tipo": "interseccion",
      "reportes": []
    },
    "I265": {
      "nombre": "Cruce Avenida Palmitos & Calle_way/306137706",
      "lat": -11.8563,
      "lon": -77.070524,
      "tipo": "interseccion",
      "reportes": []
    },
    "I266": {
      "nombre": "Cruce Avenida Palmitos & Calle_way/349650722",
      "lat": -11.856389,
      "lon": -77.070622,
      "tipo": "interseccion",
      "reportes": []
    },
    "I267": {
      "nombre": "Cruce Avenida Palmitos & Calle_way/163857928",
      "lat": -11.856684,
      "lon": -77.070945,
      "tipo": "interseccion",
      "reportes": []
    },
    "I268": {
      "nombre": "Cruce Avenida Palmitos & Calle_way/1083901319",
      "lat": -11.857044,
      "lon": -77.071303,
      "tipo": "interseccion",
      "reportes": []
    },
    "I269": {
      "nombre": "Cruce Avenida Palmitos & Avenida Copacabana",
      "lat": -11.857893,
      "lon": -77.072216,
      "tipo": "interseccion",
      "reportes": []
    },
    "I270": {
      "nombre": "Cruce Calle_way/163857901 & Calle_way/306137721",
      "lat": -11.85662,
      "lon": -77.073953,
      "tipo": "interseccion",
      "reportes": []
    },
    "I271": {
      "nombre": "Cruce Calle_way/163857901 & Calle_way/1183870436",
      "lat": -11.857592,
      "lon": -77.073509,
      "tipo": "interseccion",
      "reportes": []
    },
    "I272": {
      "nombre": "Cruce Calle_way/163857901 & Calle_way/306137720",
      "lat": -11.858354,
      "lon": -77.073142,
      "tipo": "interseccion",
      "reportes": []
    },
    "I273": {
      "nombre": "Cruce Pasaje Santa Rosa & Pasaje San Martín",
      "lat": -11.858082,
      "lon": -77.080816,
      "tipo": "interseccion",
      "reportes": []
    },
    "I274": {
      "nombre": "Cruce Calle_way/163857904 & Calle Las Higueras",
      "lat": -11.85948,
      "lon": -77.079558,
      "tipo": "interseccion",
      "reportes": []
    },
    "I275": {
      "nombre": "Cruce Calle_way/163857904 & Calle Las Fresas",
      "lat": -11.859962,
      "lon": -77.07923,
      "tipo": "interseccion",
      "reportes": []
    },
    "I276": {
      "nombre": "Cruce Calle_way/163857905 & Calle_way/291837524",
      "lat": -11.859626,
      "lon": -77.073413,
      "tipo": "interseccion",
      "reportes": []
    },
    "I277": {
      "nombre": "Cruce Calle_way/163857905 & Calle_way/613644878",
      "lat": -11.860275,
      "lon": -77.072622,
      "tipo": "interseccion",
      "reportes": []
    },
    "I278": {
      "nombre": "Cruce Calle_way/163857905 & Calle_way/684977391",
      "lat": -11.860563,
      "lon": -77.072296,
      "tipo": "interseccion",
      "reportes": []
    },
    "I279": {
      "nombre": "Cruce Pasaje Leonidas Gutierrez & Calle_way/1051397043",
      "lat": -11.860877,
      "lon": -77.076758,
      "tipo": "interseccion",
      "reportes": []
    },
    "I280": {
      "nombre": "Cruce Pasaje Leonidas Gutierrez & Calle_way/991947175",
      "lat": -11.860479,
      "lon": -77.076467,
      "tipo": "interseccion",
      "reportes": []
    },
    "I281": {
      "nombre": "Cruce Calle Los Frutales & Calle Los Ficus",
      "lat": -11.856502,
      "lon": -77.075384,
      "tipo": "interseccion",
      "reportes": []
    },
    "I282": {
      "nombre": "Cruce Calle Los Frutales & Calle Los Pinos",
      "lat": -11.857651,
      "lon": -77.074861,
      "tipo": "interseccion",
      "reportes": []
    },
    "I283": {
      "nombre": "Cruce Calle Los Frutales & Calle_way/163857943",
      "lat": -11.85927,
      "lon": -77.074082,
      "tipo": "interseccion",
      "reportes": []
    },
    "I284": {
      "nombre": "Cruce Calle Los Pinos & Calle_way/163857929",
      "lat": -11.857376,
      "lon": -77.074182,
      "tipo": "interseccion",
      "reportes": []
    },
    "I285": {
      "nombre": "Cruce Calle Los Pinos & Pasaje Progreso",
      "lat": -11.857514,
      "lon": -77.074523,
      "tipo": "interseccion",
      "reportes": []
    },
    "I286": {
      "nombre": "Cruce Calle Los Pinos & Calle Las Flores",
      "lat": -11.857791,
      "lon": -77.075224,
      "tipo": "interseccion",
      "reportes": []
    },
    "I287": {
      "nombre": "Cruce Calle_way/163857919 & Calle Las Dalias",
      "lat": -11.858604,
      "lon": -77.07682,
      "tipo": "interseccion",
      "reportes": []
    },
    "I288": {
      "nombre": "Cruce Calle_way/163857919 & Calle_way/163857926",
      "lat": -11.858398,
      "lon": -77.075696,
      "tipo": "interseccion",
      "reportes": []
    },
    "I289": {
      "nombre": "Cruce Calle_way/163857919 & Calle Las Flores",
      "lat": -11.858144,
      "lon": -77.075058,
      "tipo": "interseccion",
      "reportes": []
    },
    "I290": {
      "nombre": "Cruce Calle_way/163857926 & Calle Las Violetas",
      "lat": -11.859317,
      "lon": -77.076871,
      "tipo": "interseccion",
      "reportes": []
    },
    "I291": {
      "nombre": "Cruce Calle_way/163857926 & Calle Las Dalias",
      "lat": -11.859023,
      "lon": -77.076501,
      "tipo": "interseccion",
      "reportes": []
    },
    "I292": {
      "nombre": "Cruce Calle_way/163857927 & Calle_way/163857928",
      "lat": -11.857926,
      "lon": -77.069902,
      "tipo": "interseccion",
      "reportes": []
    },
    "I293": {
      "nombre": "Cruce Calle_way/163857928 & Calle_way/349650715",
      "lat": -11.857067,
      "lon": -77.070633,
      "tipo": "interseccion",
      "reportes": []
    },
    "I294": {
      "nombre": "Cruce Calle_way/163857928 & Calle Los Rosales",
      "lat": -11.857418,
      "lon": -77.070335,
      "tipo": "interseccion",
      "reportes": []
    },
    "I295": {
      "nombre": "Cruce Calle_way/163857928 & Calle_way/349650732",
      "lat": -11.857515,
      "lon": -77.070252,
      "tipo": "interseccion",
      "reportes": []
    },
    "I296": {
      "nombre": "Cruce Calle_way/163857928 & Calle Los Claveles",
      "lat": -11.857811,
      "lon": -77.07,
      "tipo": "interseccion",
      "reportes": []
    },
    "I297": {
      "nombre": "Cruce Calle_way/163857928 & Calle Las Orquídeas",
      "lat": -11.858193,
      "lon": -77.069678,
      "tipo": "interseccion",
      "reportes": []
    },
    "I298": {
      "nombre": "Cruce Calle_way/163857928 & Calle_way/349649572",
      "lat": -11.858299,
      "lon": -77.069582,
      "tipo": "interseccion",
      "reportes": []
    },
    "I299": {
      "nombre": "Cruce Calle_way/163857928 & Calle_way/349650725",
      "lat": -11.858405,
      "lon": -77.06949,
      "tipo": "interseccion",
      "reportes": []
    },
    "I300": {
      "nombre": "Cruce Calle_way/163857928 & Avenida Lecaros",
      "lat": -11.858657,
      "lon": -77.069277,
      "tipo": "interseccion",
      "reportes": []
    },
    "I301": {
      "nombre": "Cruce Calle_way/163857928 & Avenida Lecaros",
      "lat": -11.858737,
      "lon": -77.0692,
      "tipo": "interseccion",
      "reportes": []
    },
    "I302": {
      "nombre": "Cruce Calle_way/163857929 & Calle Los Ficus",
      "lat": -11.856098,
      "lon": -77.074761,
      "tipo": "interseccion",
      "reportes": []
    },
    "I303": {
      "nombre": "Cruce Calle_way/163857929 & Calle_way/306137721",
      "lat": -11.856811,
      "lon": -77.074438,
      "tipo": "interseccion",
      "reportes": []
    },
    "I304": {
      "nombre": "Cruce Calle_way/163857929 & Calle_way/1183870436",
      "lat": -11.857796,
      "lon": -77.073974,
      "tipo": "interseccion",
      "reportes": []
    },
    "I305": {
      "nombre": "Cruce Calle_way/163857929 & Calle_way/306137720",
      "lat": -11.858967,
      "lon": -77.073394,
      "tipo": "interseccion",
      "reportes": []
    },
    "I306": {
      "nombre": "Cruce Calle_way/163857929 & Calle_way/291837524",
      "lat": -11.859072,
      "lon": -77.073169,
      "tipo": "interseccion",
      "reportes": []
    },
    "I307": {
      "nombre": "Cruce Calle Las Dalias & Calle A",
      "lat": -11.858064,
      "lon": -77.076995,
      "tipo": "interseccion",
      "reportes": []
    },
    "I308": {
      "nombre": "Cruce Avenida Copacabana & Avenida Lecaros",
      "lat": -11.861132,
      "lon": -77.071204,
      "tipo": "interseccion",
      "reportes": []
    },
    "I309": {
      "nombre": "Cruce Avenida Copacabana & Avenida Lecaros",
      "lat": -11.861011,
      "lon": -77.071243,
      "tipo": "interseccion",
      "reportes": []
    },
    "I310": {
      "nombre": "Cruce Avenida Copacabana & Calle_way/1424006552",
      "lat": -11.8606,
      "lon": -77.071363,
      "tipo": "interseccion",
      "reportes": []
    },
    "I311": {
      "nombre": "Cruce Avenida Copacabana & Calle_way/684977392",
      "lat": -11.860532,
      "lon": -77.071382,
      "tipo": "interseccion",
      "reportes": []
    },
    "I312": {
      "nombre": "Cruce Avenida Copacabana & Calle Los Naranjos",
      "lat": -11.859411,
      "lon": -77.07173,
      "tipo": "interseccion",
      "reportes": []
    },
    "I313": {
      "nombre": "Cruce Avenida Copacabana & Calle Los Rosales",
      "lat": -11.858799,
      "lon": -77.071928,
      "tipo": "interseccion",
      "reportes": []
    },
    "I314": {
      "nombre": "Cruce Avenida Copacabana & Calle_way/349650715",
      "lat": -11.858403,
      "lon": -77.072052,
      "tipo": "interseccion",
      "reportes": []
    },
    "I315": {
      "nombre": "Cruce Calle_way/163857935 & Calle_way/306137693",
      "lat": -11.857368,
      "lon": -77.07822,
      "tipo": "interseccion",
      "reportes": []
    },
    "I316": {
      "nombre": "Cruce Calle_way/163857935 & Calle_way/163857937",
      "lat": -11.857425,
      "lon": -77.078205,
      "tipo": "interseccion",
      "reportes": []
    },
    "I317": {
      "nombre": "Cruce Calle_way/163857937 & Calle_way/536206277",
      "lat": -11.857617,
      "lon": -77.078514,
      "tipo": "interseccion",
      "reportes": []
    },
    "I318": {
      "nombre": "Cruce Calle_way/163857937 & Calle_way/536206276",
      "lat": -11.857833,
      "lon": -77.078825,
      "tipo": "interseccion",
      "reportes": []
    },
    "I319": {
      "nombre": "Cruce Calle_way/163857937 & Calle_way/536206273",
      "lat": -11.858493,
      "lon": -77.079799,
      "tipo": "interseccion",
      "reportes": []
    },
    "I320": {
      "nombre": "Cruce Calle Las Orquídeas & Calle Las Petunias",
      "lat": -11.859227,
      "lon": -77.075242,
      "tipo": "interseccion",
      "reportes": []
    },
    "I321": {
      "nombre": "Cruce Calle Las Orquídeas & Calle Las Violetas",
      "lat": -11.860023,
      "lon": -77.076299,
      "tipo": "interseccion",
      "reportes": []
    },
    "I322": {
      "nombre": "Cruce Calle Las Orquídeas & Calle_way/1051397043",
      "lat": -11.860717,
      "lon": -77.076955,
      "tipo": "interseccion",
      "reportes": []
    },
    "I323": {
      "nombre": "Cruce Calle Las Flores & Calle_way/163857941",
      "lat": -11.85657,
      "lon": -77.075773,
      "tipo": "interseccion",
      "reportes": []
    },
    "I324": {
      "nombre": "Cruce Calle Las Flores & Calle Los Ficus",
      "lat": -11.856727,
      "lon": -77.075719,
      "tipo": "interseccion",
      "reportes": []
    },
    "I325": {
      "nombre": "Cruce Calle Las Flores & Calle_way/163857943",
      "lat": -11.859568,
      "lon": -77.074394,
      "tipo": "interseccion",
      "reportes": []
    },
    "I326": {
      "nombre": "Cruce Calle Las Flores & Calle_way/291837524",
      "lat": -11.860468,
      "lon": -77.073925,
      "tipo": "interseccion",
      "reportes": []
    },
    "I327": {
      "nombre": "Cruce Calle_way/163857941 & Calle_way/306137697",
      "lat": -11.85745,
      "lon": -77.076942,
      "tipo": "interseccion",
      "reportes": []
    },
    "I328": {
      "nombre": "Cruce Calle_way/163857941 & Calle_way/536206279",
      "lat": -11.857606,
      "lon": -77.077149,
      "tipo": "interseccion",
      "reportes": []
    },
    "I329": {
      "nombre": "Cruce Calle Las Margaritas & Calle Las Petunias",
      "lat": -11.858851,
      "lon": -77.075452,
      "tipo": "interseccion",
      "reportes": []
    },
    "I330": {
      "nombre": "Cruce Calle Las Margaritas & Calle Las Violetas",
      "lat": -11.859688,
      "lon": -77.076588,
      "tipo": "interseccion",
      "reportes": []
    },
    "I331": {
      "nombre": "Cruce Calle Las Margaritas & Calle_way/291837522",
      "lat": -11.859959,
      "lon": -77.076889,
      "tipo": "interseccion",
      "reportes": []
    },
    "I332": {
      "nombre": "Cruce Calle Las Margaritas & Calle_way/349650733",
      "lat": -11.860238,
      "lon": -77.077203,
      "tipo": "interseccion",
      "reportes": []
    },
    "I333": {
      "nombre": "Cruce Calle Las Margaritas & Calle_way/1051397043",
      "lat": -11.860395,
      "lon": -77.077324,
      "tipo": "interseccion",
      "reportes": []
    },
    "I334": {
      "nombre": "Cruce Calle_way/163857943 & Calle_way/1183881707",
      "lat": -11.859184,
      "lon": -77.073905,
      "tipo": "interseccion",
      "reportes": []
    },
    "I335": {
      "nombre": "Cruce Calle_way/163857943 & Calle Las Petunias",
      "lat": -11.860049,
      "lon": -77.074748,
      "tipo": "interseccion",
      "reportes": []
    },
    "I336": {
      "nombre": "Cruce Calle Las Violetas & Calle_way/671971245",
      "lat": -11.858543,
      "lon": -77.077402,
      "tipo": "interseccion",
      "reportes": []
    },
    "I337": {
      "nombre": "Cruce Calle Las Violetas & Calle A",
      "lat": -11.858115,
      "lon": -77.077447,
      "tipo": "interseccion",
      "reportes": []
    },
    "I338": {
      "nombre": "Cruce Calle A & Calle_way/306137697",
      "lat": -11.858029,
      "lon": -77.076677,
      "tipo": "interseccion",
      "reportes": []
    },
    "I339": {
      "nombre": "Cruce Calle Las Petunias & Calle_way/1183881035",
      "lat": -11.859559,
      "lon": -77.075045,
      "tipo": "interseccion",
      "reportes": []
    },
    "I340": {
      "nombre": "Cruce Calle Las Petunias & Calle_way/291837524",
      "lat": -11.860889,
      "lon": -77.0743,
      "tipo": "interseccion",
      "reportes": []
    },
    "I341": {
      "nombre": "Cruce Pasaje San Martín & Calle_way/306137686",
      "lat": -11.856745,
      "lon": -77.07978,
      "tipo": "interseccion",
      "reportes": []
    },
    "I342": {
      "nombre": "Cruce Pasaje San Martín & Calle_way/306137692",
      "lat": -11.857166,
      "lon": -77.080043,
      "tipo": "interseccion",
      "reportes": []
    },
    "I343": {
      "nombre": "Cruce Pasaje San Martín & Pasaje San Martín",
      "lat": -11.857561,
      "lon": -77.080266,
      "tipo": "interseccion",
      "reportes": []
    },
    "I344": {
      "nombre": "Cruce Calle Las Higueras & Calle Las Fresas",
      "lat": -11.858625,
      "lon": -77.078303,
      "tipo": "interseccion",
      "reportes": []
    },
    "I345": {
      "nombre": "Cruce Calle Las Higueras & Calle_way/1005599572",
      "lat": -11.859695,
      "lon": -77.07981,
      "tipo": "interseccion",
      "reportes": []
    },
    "I346": {
      "nombre": "Cruce Calle Las Higueras & Avenida Puente Piedra",
      "lat": -11.860028,
      "lon": -77.080103,
      "tipo": "interseccion",
      "reportes": []
    },
    "I347": {
      "nombre": "Cruce Calle Los Cocos & Calle_way/163864914",
      "lat": -11.845723,
      "lon": -77.079259,
      "tipo": "interseccion",
      "reportes": []
    },
    "I348": {
      "nombre": "Cruce Calle Los Cocos & Calle_way/349655289",
      "lat": -11.846111,
      "lon": -77.079688,
      "tipo": "interseccion",
      "reportes": []
    },
    "I349": {
      "nombre": "Cruce Calle Los Cocos & Pasaje 2",
      "lat": -11.84639,
      "lon": -77.080012,
      "tipo": "interseccion",
      "reportes": []
    },
    "I350": {
      "nombre": "Cruce Calle Los Cocos & Calle_way/349655288",
      "lat": -11.846603,
      "lon": -77.080259,
      "tipo": "interseccion",
      "reportes": []
    },
    "I351": {
      "nombre": "Cruce Calle Los Cocos & Calle José María Egulen",
      "lat": -11.846709,
      "lon": -77.080383,
      "tipo": "interseccion",
      "reportes": []
    },
    "I352": {
      "nombre": "Cruce Calle Los Cocos & Calle_way/163864959",
      "lat": -11.846812,
      "lon": -77.080505,
      "tipo": "interseccion",
      "reportes": []
    },
    "I353": {
      "nombre": "Cruce Calle Los Cocos & Calle Huánuco",
      "lat": -11.847033,
      "lon": -77.080791,
      "tipo": "interseccion",
      "reportes": []
    },
    "I354": {
      "nombre": "Cruce Calle Los Cocos & Calle_way/536204969",
      "lat": -11.847481,
      "lon": -77.081404,
      "tipo": "interseccion",
      "reportes": []
    },
    "I355": {
      "nombre": "Cruce Calle Los Cocos & Calle_way/349654477",
      "lat": -11.847726,
      "lon": -77.081708,
      "tipo": "interseccion",
      "reportes": []
    },
    "I356": {
      "nombre": "Cruce Calle Los Cocos & Calle_way/163864938",
      "lat": -11.848139,
      "lon": -77.082233,
      "tipo": "interseccion",
      "reportes": []
    },
    "I357": {
      "nombre": "Cruce Calle Los Cocos & Calle_way/163864945",
      "lat": -11.848906,
      "lon": -77.083208,
      "tipo": "interseccion",
      "reportes": []
    },
    "I358": {
      "nombre": "Cruce Calle Los Cocos & Calle Los Cocos",
      "lat": -11.849399,
      "lon": -77.08376,
      "tipo": "interseccion",
      "reportes": []
    },
    "I359": {
      "nombre": "Cruce Calle_way/163864914 & Calle_way/1177989818",
      "lat": -11.844959,
      "lon": -77.081389,
      "tipo": "interseccion",
      "reportes": []
    },
    "I360": {
      "nombre": "Cruce Calle_way/163864914 & Calle_way/1177989818",
      "lat": -11.845206,
      "lon": -77.080717,
      "tipo": "interseccion",
      "reportes": []
    },
    "I361": {
      "nombre": "Cruce Calle_way/163864914 & Calle_way/1308800790",
      "lat": -11.845441,
      "lon": -77.080026,
      "tipo": "interseccion",
      "reportes": []
    },
    "I362": {
      "nombre": "Cruce Calle_way/163864914 & Calle_way/1415634895",
      "lat": -11.845539,
      "lon": -77.079739,
      "tipo": "interseccion",
      "reportes": []
    },
    "I363": {
      "nombre": "Cruce Calle_way/163864914 & Calle Pastor Pumasunco",
      "lat": -11.845966,
      "lon": -77.079006,
      "tipo": "interseccion",
      "reportes": []
    },
    "I364": {
      "nombre": "Cruce Avenida Copacabana & Avenida San Martín de Porres",
      "lat": -11.852446,
      "lon": -77.075268,
      "tipo": "interseccion",
      "reportes": []
    },
    "I365": {
      "nombre": "Cruce Avenida Copacabana & Calle_way/539325989",
      "lat": -11.850881,
      "lon": -77.076319,
      "tipo": "interseccion",
      "reportes": []
    },
    "I366": {
      "nombre": "Cruce Avenida Copacabana & Calle_way/349652588",
      "lat": -11.850231,
      "lon": -77.076759,
      "tipo": "interseccion",
      "reportes": []
    },
    "I367": {
      "nombre": "Cruce Avenida Copacabana & Calle Las Margaritas",
      "lat": -11.849393,
      "lon": -77.077289,
      "tipo": "interseccion",
      "reportes": []
    },
    "I368": {
      "nombre": "Cruce Avenida Copacabana & Calle_way/1155897991",
      "lat": -11.849328,
      "lon": -77.077326,
      "tipo": "interseccion",
      "reportes": []
    },
    "I369": {
      "nombre": "Cruce Avenida Copacabana & Calle_way/991033126",
      "lat": -11.847912,
      "lon": -77.078229,
      "tipo": "interseccion",
      "reportes": []
    },
    "I370": {
      "nombre": "Cruce Avenida Copacabana & Avenida Copacabana",
      "lat": -11.847872,
      "lon": -77.078251,
      "tipo": "interseccion",
      "reportes": []
    },
    "I371": {
      "nombre": "Cruce Calle_way/163864916 & Calle_way/163864940",
      "lat": -11.849223,
      "lon": -77.082335,
      "tipo": "interseccion",
      "reportes": []
    },
    "I372": {
      "nombre": "Cruce Calle_way/163864916 & Calle_way/536204968",
      "lat": -11.8495,
      "lon": -77.082609,
      "tipo": "interseccion",
      "reportes": []
    },
    "I373": {
      "nombre": "Cruce Calle_way/163864916 & Calle Los Duraznos",
      "lat": -11.850215,
      "lon": -77.083331,
      "tipo": "interseccion",
      "reportes": []
    },
    "I374": {
      "nombre": "Cruce Calle_way/163864919 & Avenida Los Gladiolos",
      "lat": -11.849447,
      "lon": -77.079287,
      "tipo": "interseccion",
      "reportes": []
    },
    "I375": {
      "nombre": "Cruce Calle_way/163864919 & Calle Los Girasoles",
      "lat": -11.850573,
      "lon": -77.080406,
      "tipo": "interseccion",
      "reportes": []
    },
    "I376": {
      "nombre": "Cruce Calle Los Claveles & Calle Los Geranios",
      "lat": -11.849061,
      "lon": -77.078217,
      "tipo": "interseccion",
      "reportes": []
    },
    "I377": {
      "nombre": "Cruce Calle Los Claveles & Calle_way/999292882",
      "lat": -11.849297,
      "lon": -77.078479,
      "tipo": "interseccion",
      "reportes": []
    },
    "I378": {
      "nombre": "Cruce Calle Los Claveles & Calle_way/999292883",
      "lat": -11.84948,
      "lon": -77.078683,
      "tipo": "interseccion",
      "reportes": []
    },
    "I379": {
      "nombre": "Cruce Calle Los Claveles & Calle Los Claveles",
      "lat": -11.849837,
      "lon": -77.07899,
      "tipo": "interseccion",
      "reportes": []
    },
    "I380": {
      "nombre": "Cruce Calle_way/163864924 & Avenida Las Viñas",
      "lat": -11.853508,
      "lon": -77.08392,
      "tipo": "interseccion",
      "reportes": []
    },
    "I381": {
      "nombre": "Cruce Calle_way/163864924 & Calle_way/536204959",
      "lat": -11.852923,
      "lon": -77.084244,
      "tipo": "interseccion",
      "reportes": []
    },
    "I382": {
      "nombre": "Cruce Calle_way/163864924 & Calle_way/536204961",
      "lat": -11.852897,
      "lon": -77.084258,
      "tipo": "interseccion",
      "reportes": []
    },
    "I383": {
      "nombre": "Cruce Calle_way/163864924 & Calle_way/536204960",
      "lat": -11.852407,
      "lon": -77.084527,
      "tipo": "interseccion",
      "reportes": []
    },
    "I384": {
      "nombre": "Cruce Calle_way/163864924 & Calle Los Duraznos",
      "lat": -11.851987,
      "lon": -77.084773,
      "tipo": "interseccion",
      "reportes": []
    },
    "I385": {
      "nombre": "Cruce Calle Los Mangos & Calle_way/536204969",
      "lat": -11.848098,
      "lon": -77.080669,
      "tipo": "interseccion",
      "reportes": []
    },
    "I386": {
      "nombre": "Cruce Calle Los Mangos & Calle_way/349654477",
      "lat": -11.848404,
      "lon": -77.080922,
      "tipo": "interseccion",
      "reportes": []
    },
    "I387": {
      "nombre": "Cruce Calle Los Mangos & Calle_way/163864938",
      "lat": -11.848888,
      "lon": -77.081388,
      "tipo": "interseccion",
      "reportes": []
    },
    "I388": {
      "nombre": "Cruce Calle Los Mangos & Calle_way/163864940",
      "lat": -11.849474,
      "lon": -77.081959,
      "tipo": "interseccion",
      "reportes": []
    },
    "I389": {
      "nombre": "Cruce Calle Los Mangos & Calle Los Duraznos",
      "lat": -11.85051,
      "lon": -77.082994,
      "tipo": "interseccion",
      "reportes": []
    },
    "I390": {
      "nombre": "Cruce Calle_way/163864933 & Calle_way/349652535",
      "lat": -11.850197,
      "lon": -77.081489,
      "tipo": "interseccion",
      "reportes": []
    },
    "I391": {
      "nombre": "Cruce Calle_way/163864933 & Calle Los Duraznos",
      "lat": -11.85106,
      "lon": -77.082337,
      "tipo": "interseccion",
      "reportes": []
    },
    "I392": {
      "nombre": "Cruce Calle_way/163864933 & Avenida Las Viñas",
      "lat": -11.851812,
      "lon": -77.083033,
      "tipo": "interseccion",
      "reportes": []
    },
    "I393": {
      "nombre": "Cruce Calle Los Rosales & Avenida Copacabana",
      "lat": -11.849116,
      "lon": -77.077602,
      "tipo": "interseccion",
      "reportes": []
    },
    "I394": {
      "nombre": "Cruce Calle Los Rosales & Calle Los Geranios",
      "lat": -11.849418,
      "lon": -77.077922,
      "tipo": "interseccion",
      "reportes": []
    },
    "I395": {
      "nombre": "Cruce Calle Los Rosales & Calle Los Rosales",
      "lat": -11.850184,
      "lon": -77.078689,
      "tipo": "interseccion",
      "reportes": []
    },
    "I396": {
      "nombre": "Cruce Calle_way/163864938 & Calle_way/163864939",
      "lat": -11.84689,
      "lon": -77.083679,
      "tipo": "interseccion",
      "reportes": []
    },
    "I397": {
      "nombre": "Cruce Calle_way/163864938 & Calle_way/349654476",
      "lat": -11.847185,
      "lon": -77.083322,
      "tipo": "interseccion",
      "reportes": []
    },
    "I398": {
      "nombre": "Cruce Calle_way/163864938 & Calle_way/536204971",
      "lat": -11.847452,
      "lon": -77.083019,
      "tipo": "interseccion",
      "reportes": []
    },
    "I399": {
      "nombre": "Cruce Calle_way/163864938 & Calle_way/536204972",
      "lat": -11.847567,
      "lon": -77.082892,
      "tipo": "interseccion",
      "reportes": []
    },
    "I400": {
      "nombre": "Cruce Calle_way/163864938 & Calle_way/349654475",
      "lat": -11.847824,
      "lon": -77.082592,
      "tipo": "interseccion",
      "reportes": []
    },
    "I401": {
      "nombre": "Cruce Calle_way/163864938 & Avenida Las Viñas",
      "lat": -11.849203,
      "lon": -77.081083,
      "tipo": "interseccion",
      "reportes": []
    },
    "I402": {
      "nombre": "Cruce Calle_way/163864939 & Calle_way/1415634896",
      "lat": -11.845602,
      "lon": -77.082155,
      "tipo": "interseccion",
      "reportes": []
    },
    "I403": {
      "nombre": "Cruce Calle_way/163864939 & Calle_way/349654477",
      "lat": -11.846451,
      "lon": -77.083157,
      "tipo": "interseccion",
      "reportes": []
    },
    "I404": {
      "nombre": "Cruce Calle_way/163864940 & Avenida Las Viñas",
      "lat": -11.849757,
      "lon": -77.08163,
      "tipo": "interseccion",
      "reportes": []
    },
    "I405": {
      "nombre": "Cruce Calle Los Rosales & Calle Los Girasoles",
      "lat": -11.851386,
      "lon": -77.079871,
      "tipo": "interseccion",
      "reportes": []
    },
    "I406": {
      "nombre": "Cruce Calle_way/163864945 & Calle_way/536204968",
      "lat": -11.849175,
      "lon": -77.082947,
      "tipo": "interseccion",
      "reportes": []
    },
    "I407": {
      "nombre": "Cruce Calle_way/163864946 & Calle Los Cocos",
      "lat": -11.85058,
      "lon": -77.084329,
      "tipo": "interseccion",
      "reportes": []
    },
    "I408": {
      "nombre": "Cruce Calle Los Claveles & Calle Los Girasoles",
      "lat": -11.85096,
      "lon": -77.080146,
      "tipo": "interseccion",
      "reportes": []
    },
    "I409": {
      "nombre": "Cruce Calle_way/163864950 & Calle_way/163864969",
      "lat": -11.850866,
      "lon": -77.084703,
      "tipo": "interseccion",
      "reportes": []
    },
    "I410": {
      "nombre": "Cruce Calle_way/163864950 & Calle Las Almendras",
      "lat": -11.851451,
      "lon": -77.085378,
      "tipo": "interseccion",
      "reportes": []
    },
    "I411": {
      "nombre": "Cruce Calle Las Viñas del Norte & Calle Los Girasoles",
      "lat": -11.850743,
      "lon": -77.080292,
      "tipo": "interseccion",
      "reportes": []
    },
    "I412": {
      "nombre": "Cruce Calle Las Viñas del Norte & Calle_way/349652535",
      "lat": -11.851137,
      "lon": -77.080646,
      "tipo": "interseccion",
      "reportes": []
    },
    "I413": {
      "nombre": "Cruce Calle Las Viñas del Norte & Calle_way/349652548",
      "lat": -11.851477,
      "lon": -77.080955,
      "tipo": "interseccion",
      "reportes": []
    },
    "I414": {
      "nombre": "Cruce Calle Las Viñas del Norte & Calle Los Duraznos",
      "lat": -11.852047,
      "lon": -77.08144,
      "tipo": "interseccion",
      "reportes": []
    },
    "I415": {
      "nombre": "Cruce Calle Las Viñas del Norte & Calle_way/536204992",
      "lat": -11.853125,
      "lon": -77.0824,
      "tipo": "interseccion",
      "reportes": []
    },
    "I416": {
      "nombre": "Cruce Calle Los Cocos & Calle Los Duraznos",
      "lat": -11.849697,
      "lon": -77.083924,
      "tipo": "interseccion",
      "reportes": []
    },
    "I417": {
      "nombre": "Cruce Calle Los Cocos & Calle_way/163864962",
      "lat": -11.849772,
      "lon": -77.083977,
      "tipo": "interseccion",
      "reportes": []
    },
    "I418": {
      "nombre": "Cruce Calle Los Cocos & Calle_way/163864973",
      "lat": -11.8501,
      "lon": -77.084136,
      "tipo": "interseccion",
      "reportes": []
    },
    "I419": {
      "nombre": "Cruce Calle Los Cocos & Calle_way/163864969",
      "lat": -11.850988,
      "lon": -77.084512,
      "tipo": "interseccion",
      "reportes": []
    },
    "I420": {
      "nombre": "Cruce Calle Huánuco & Calle_way/349654475",
      "lat": -11.846666,
      "lon": -77.081158,
      "tipo": "interseccion",
      "reportes": []
    },
    "I421": {
      "nombre": "Cruce Calle Huánuco & Calle_way/536204974",
      "lat": -11.847202,
      "lon": -77.080626,
      "tipo": "interseccion",
      "reportes": []
    },
    "I422": {
      "nombre": "Cruce Calle Huánuco & Calle_way/536204973",
      "lat": -11.847498,
      "lon": -77.080336,
      "tipo": "interseccion",
      "reportes": []
    },
    "I423": {
      "nombre": "Cruce Calle Huánuco & Calle_way/349654471",
      "lat": -11.847641,
      "lon": -77.080196,
      "tipo": "interseccion",
      "reportes": []
    },
    "I424": {
      "nombre": "Cruce Calle Huánuco & Avenida Las Viñas",
      "lat": -11.847996,
      "lon": -77.079849,
      "tipo": "interseccion",
      "reportes": []
    },
    "I425": {
      "nombre": "Cruce Calle_way/163864959 & Calle_way/349654471",
      "lat": -11.847413,
      "lon": -77.079962,
      "tipo": "interseccion",
      "reportes": []
    },
    "I426": {
      "nombre": "Cruce Calle Las Almendras & Calle Los Duraznos",
      "lat": -11.852035,
      "lon": -77.084832,
      "tipo": "interseccion",
      "reportes": []
    },
    "I427": {
      "nombre": "Cruce Calle Las Almendras & Pasaje Central",
      "lat": -11.851694,
      "lon": -77.085112,
      "tipo": "interseccion",
      "reportes": []
    },
    "I428": {
      "nombre": "Cruce Calle_way/163864962 & Pasaje Las Palmeras",
      "lat": -11.848883,
      "lon": -77.085166,
      "tipo": "interseccion",
      "reportes": []
    },
    "I429": {
      "nombre": "Cruce Calle_way/163864962 & Calle_way/872865547",
      "lat": -11.849251,
      "lon": -77.084686,
      "tipo": "interseccion",
      "reportes": []
    },
    "I430": {
      "nombre": "Cruce Calle_way/163864964 & Calle Los Girasoles",
      "lat": -11.850235,
      "lon": -77.080633,
      "tipo": "interseccion",
      "reportes": []
    },
    "I431": {
      "nombre": "Cruce Calle_way/163864969 & Avenida Las Viñas",
      "lat": -11.852533,
      "lon": -77.083084,
      "tipo": "interseccion",
      "reportes": []
    },
    "I432": {
      "nombre": "Cruce Calle_way/163864969 & Calle_way/536204961",
      "lat": -11.852267,
      "lon": -77.083345,
      "tipo": "interseccion",
      "reportes": []
    },
    "I433": {
      "nombre": "Cruce Calle_way/163864969 & Calle_way/1001559188",
      "lat": -11.852027,
      "lon": -77.08358,
      "tipo": "interseccion",
      "reportes": []
    },
    "I434": {
      "nombre": "Cruce Calle_way/163864969 & Calle_way/536204960",
      "lat": -11.851774,
      "lon": -77.083807,
      "tipo": "interseccion",
      "reportes": []
    },
    "I435": {
      "nombre": "Cruce Calle_way/163864969 & Calle Los Duraznos",
      "lat": -11.851438,
      "lon": -77.084108,
      "tipo": "interseccion",
      "reportes": []
    },
    "I436": {
      "nombre": "Cruce Calle_way/163864969 & Pasaje Central",
      "lat": -11.851115,
      "lon": -77.0844,
      "tipo": "interseccion",
      "reportes": []
    },
    "I437": {
      "nombre": "Cruce Calle_way/163864969 & Calle_way/872865545",
      "lat": -11.850761,
      "lon": -77.084847,
      "tipo": "interseccion",
      "reportes": []
    },
    "I438": {
      "nombre": "Cruce Calle_way/163864969 & Calle_way/872865547",
      "lat": -11.850288,
      "lon": -77.0855,
      "tipo": "interseccion",
      "reportes": []
    },
    "I439": {
      "nombre": "Cruce Calle_way/163864969 & Pasaje Las Palmeras",
      "lat": -11.850036,
      "lon": -77.08584,
      "tipo": "interseccion",
      "reportes": []
    },
    "I440": {
      "nombre": "Cruce Calle_way/163864973 & Avenida Las Viñas",
      "lat": -11.851191,
      "lon": -77.083007,
      "tipo": "interseccion",
      "reportes": []
    },
    "I441": {
      "nombre": "Cruce Avenida Los Gladiolos & Calle Las Margaritas",
      "lat": -11.85052,
      "lon": -77.078427,
      "tipo": "interseccion",
      "reportes": []
    },
    "I442": {
      "nombre": "Cruce Avenida Los Gladiolos & Calle_way/349652561",
      "lat": -11.850822,
      "lon": -77.07821,
      "tipo": "interseccion",
      "reportes": []
    },
    "I443": {
      "nombre": "Cruce Calle Los Girasoles & Calle_way/536204976",
      "lat": -11.851144,
      "lon": -77.08003,
      "tipo": "interseccion",
      "reportes": []
    },
    "I444": {
      "nombre": "Cruce Calle Los Girasoles & Calle Las Margaritas",
      "lat": -11.851749,
      "lon": -77.079636,
      "tipo": "interseccion",
      "reportes": []
    },
    "I445": {
      "nombre": "Cruce Calle Los Girasoles & Calle_way/536204977",
      "lat": -11.85199,
      "lon": -77.079472,
      "tipo": "interseccion",
      "reportes": []
    },
    "I446": {
      "nombre": "Cruce Calle Los Girasoles & Calle_way/349652561",
      "lat": -11.852054,
      "lon": -77.07943,
      "tipo": "interseccion",
      "reportes": []
    },
    "I447": {
      "nombre": "Cruce Avenida Las Viñas & Avenida Las Viñas",
      "lat": -11.85235,
      "lon": -77.08293,
      "tipo": "interseccion",
      "reportes": []
    },
    "I448": {
      "nombre": "Cruce Avenida Las Viñas & Calle_way/292239871",
      "lat": -11.853908,
      "lon": -77.084225,
      "tipo": "interseccion",
      "reportes": []
    },
    "I449": {
      "nombre": "Cruce Avenida Las Viñas & Calle Los Pinos",
      "lat": -11.854237,
      "lon": -77.084468,
      "tipo": "interseccion",
      "reportes": []
    },
    "I450": {
      "nombre": "Cruce Avenida Las Viñas & Calle_way/1001559187",
      "lat": -11.854773,
      "lon": -77.084976,
      "tipo": "interseccion",
      "reportes": []
    },
    "I451": {
      "nombre": "Cruce Avenida Las Viñas & Avenida Puente Piedra",
      "lat": -11.855575,
      "lon": -77.085704,
      "tipo": "interseccion",
      "reportes": []
    },
    "I452": {
      "nombre": "Cruce Avenida San Juan de Dios & Avenida Lecaros",
      "lat": -11.864404,
      "lon": -77.073288,
      "tipo": "interseccion",
      "reportes": []
    },
    "I453": {
      "nombre": "Cruce Avenida San Juan de Dios & Avenida Puente Piedra",
      "lat": -11.864821,
      "lon": -77.074266,
      "tipo": "interseccion",
      "reportes": []
    },
    "I454": {
      "nombre": "Cruce Avenida San Juan de Dios & Avenida San Juan de Dios",
      "lat": -11.865102,
      "lon": -77.074416,
      "tipo": "interseccion",
      "reportes": []
    },
    "I455": {
      "nombre": "Cruce Avenida San Juan de Dios & Avenida Puente Piedra",
      "lat": -11.864902,
      "lon": -77.074188,
      "tipo": "interseccion",
      "reportes": []
    },
    "I456": {
      "nombre": "Cruce Avenida San Juan de Dios & Avenida San Juan de Dios",
      "lat": -11.864832,
      "lon": -77.074049,
      "tipo": "interseccion",
      "reportes": []
    },
    "I457": {
      "nombre": "Cruce Avenida Lecaros & Avenida Saenz Peña",
      "lat": -11.865697,
      "lon": -77.076734,
      "tipo": "interseccion",
      "reportes": []
    },
    "I458": {
      "nombre": "Cruce Avenida Saenz Peña & Avenida Saenz Peña",
      "lat": -11.863312,
      "lon": -77.079469,
      "tipo": "interseccion",
      "reportes": []
    },
    "I459": {
      "nombre": "Cruce Avenida Saenz Peña & Avenida Ricardo Palma",
      "lat": -11.864721,
      "lon": -77.078229,
      "tipo": "interseccion",
      "reportes": []
    },
    "I460": {
      "nombre": "Cruce Avenida Saenz Peña & Avenida Lecaros",
      "lat": -11.865937,
      "lon": -77.076959,
      "tipo": "interseccion",
      "reportes": []
    },
    "I461": {
      "nombre": "Cruce Calle Camino Real & Calle_way/307197828",
      "lat": -11.866666,
      "lon": -77.08317,
      "tipo": "interseccion",
      "reportes": []
    },
    "I462": {
      "nombre": "Cruce Calle Camino Real & Calle_way/970797590",
      "lat": -11.866319,
      "lon": -77.082465,
      "tipo": "interseccion",
      "reportes": []
    },
    "I463": {
      "nombre": "Cruce Calle Camino Real & Calle_way/227819279",
      "lat": -11.866239,
      "lon": -77.082334,
      "tipo": "interseccion",
      "reportes": []
    },
    "I464": {
      "nombre": "Cruce Calle Camino Real & Pasaje Los Cerezo",
      "lat": -11.865894,
      "lon": -77.082341,
      "tipo": "interseccion",
      "reportes": []
    },
    "I465": {
      "nombre": "Cruce Calle Camino Real & Pasaje Las Amapolas",
      "lat": -11.865298,
      "lon": -77.08253,
      "tipo": "interseccion",
      "reportes": []
    },
    "I466": {
      "nombre": "Cruce Calle Camino Real & Calle Camino Real",
      "lat": -11.862933,
      "lon": -77.081143,
      "tipo": "interseccion",
      "reportes": []
    },
    "I467": {
      "nombre": "Cruce Calle_way/227819273 & Calle Leoncio Prado",
      "lat": -11.867076,
      "lon": -77.076985,
      "tipo": "interseccion",
      "reportes": []
    },
    "I468": {
      "nombre": "Cruce Calle_way/227819275 & Calle La Victoria",
      "lat": -11.870189,
      "lon": -77.075806,
      "tipo": "interseccion",
      "reportes": []
    },
    "I469": {
      "nombre": "Cruce Calle_way/227819275 & Calle_way/227819280",
      "lat": -11.869828,
      "lon": -77.075351,
      "tipo": "interseccion",
      "reportes": []
    },
    "I470": {
      "nombre": "Cruce Jirón Circunvalación & Calle_way/307197812",
      "lat": -11.869821,
      "lon": -77.078845,
      "tipo": "interseccion",
      "reportes": []
    },
    "I471": {
      "nombre": "Cruce Jirón Circunvalación & Calle_way/227821787",
      "lat": -11.870317,
      "lon": -77.078037,
      "tipo": "interseccion",
      "reportes": []
    },
    "I472": {
      "nombre": "Cruce Calle_way/227821784 & Calle La Victoria",
      "lat": -11.868795,
      "lon": -77.0764,
      "tipo": "interseccion",
      "reportes": []
    },
    "I473": {
      "nombre": "Cruce Calle_way/227821784 & Calle_way/227821785",
      "lat": -11.869317,
      "lon": -77.077477,
      "tipo": "interseccion",
      "reportes": []
    },
    "I474": {
      "nombre": "Cruce Calle_way/227821785 & Calle_way/227821788",
      "lat": -11.869393,
      "lon": -77.077457,
      "tipo": "interseccion",
      "reportes": []
    },
    "I475": {
      "nombre": "Cruce Calle_way/227821785 & Calle_way/307197804",
      "lat": -11.869049,
      "lon": -77.077568,
      "tipo": "interseccion",
      "reportes": []
    },
    "I476": {
      "nombre": "Cruce Calle_way/227821785 & Calle_way/1184972241",
      "lat": -11.868595,
      "lon": -77.077501,
      "tipo": "interseccion",
      "reportes": []
    },
    "I477": {
      "nombre": "Cruce Pasaje La Victoria & Jirón Venezuela",
      "lat": -11.867087,
      "lon": -77.07834,
      "tipo": "interseccion",
      "reportes": []
    },
    "I478": {
      "nombre": "Cruce Calle Santa Lucía & Avenida Saenz Peña",
      "lat": -11.867112,
      "lon": -77.075709,
      "tipo": "interseccion",
      "reportes": []
    },
    "I479": {
      "nombre": "Cruce Pasaje El Porvenir & Calle El Porvenir",
      "lat": -11.858603,
      "lon": -77.083822,
      "tipo": "interseccion",
      "reportes": []
    },
    "I480": {
      "nombre": "Cruce Calle El Porvenir & Avenida San Juan",
      "lat": -11.857426,
      "lon": -77.08503,
      "tipo": "interseccion",
      "reportes": []
    },
    "I481": {
      "nombre": "Cruce Calle El Porvenir & Calle_way/591383871",
      "lat": -11.859311,
      "lon": -77.083093,
      "tipo": "interseccion",
      "reportes": []
    },
    "I482": {
      "nombre": "Cruce Avenida Lecaros & Avenida Saenz Peña",
      "lat": -11.865748,
      "lon": -77.076695,
      "tipo": "interseccion",
      "reportes": []
    },
    "I483": {
      "nombre": "Cruce Avenida Lecaros & Avenida Puente Piedra",
      "lat": -11.864768,
      "lon": -77.074778,
      "tipo": "interseccion",
      "reportes": []
    },
    "I484": {
      "nombre": "Cruce Calle_way/241036922 & Pasaje Las Palmeras",
      "lat": -11.84852,
      "lon": -77.084938,
      "tipo": "interseccion",
      "reportes": []
    },
    "I485": {
      "nombre": "Cruce Calle Copacabana & Calle_way/570377591",
      "lat": -11.842898,
      "lon": -77.08653,
      "tipo": "interseccion",
      "reportes": []
    },
    "I486": {
      "nombre": "Cruce Calle Copacabana & Calle_way/570377592",
      "lat": -11.843333,
      "lon": -77.085398,
      "tipo": "interseccion",
      "reportes": []
    },
    "I487": {
      "nombre": "Cruce Calle Copacabana & Calle_way/872866004",
      "lat": -11.843599,
      "lon": -77.084705,
      "tipo": "interseccion",
      "reportes": []
    },
    "I488": {
      "nombre": "Cruce Calle Copacabana & Calle_way/570377588",
      "lat": -11.844107,
      "lon": -77.083384,
      "tipo": "interseccion",
      "reportes": []
    },
    "I489": {
      "nombre": "Cruce Avenida Puente Piedra & Calle Las Fresas",
      "lat": -11.860281,
      "lon": -77.079791,
      "tipo": "interseccion",
      "reportes": []
    },
    "I490": {
      "nombre": "Cruce Avenida Puente Piedra & Pasaje San Martín",
      "lat": -11.858788,
      "lon": -77.081645,
      "tipo": "interseccion",
      "reportes": []
    },
    "I491": {
      "nombre": "Cruce Avenida Puente Piedra & Calle_way/1154512889",
      "lat": -11.857702,
      "lon": -77.083047,
      "tipo": "interseccion",
      "reportes": []
    },
    "I492": {
      "nombre": "Cruce Avenida Puente Piedra & Calle_way/306137684",
      "lat": -11.856724,
      "lon": -77.084263,
      "tipo": "interseccion",
      "reportes": []
    },
    "I493": {
      "nombre": "Cruce Avenida Alfonso Ugarte & Avenida San Pedro de Choque",
      "lat": -11.865651,
      "lon": -77.059582,
      "tipo": "interseccion",
      "reportes": []
    },
    "I494": {
      "nombre": "Cruce Avenida Alfonso Ugarte & Calle_way/602715632",
      "lat": -11.866419,
      "lon": -77.059655,
      "tipo": "interseccion",
      "reportes": []
    },
    "I495": {
      "nombre": "Cruce Avenida Alfonso Ugarte & Calle Hatari",
      "lat": -11.867505,
      "lon": -77.060213,
      "tipo": "interseccion",
      "reportes": []
    },
    "I496": {
      "nombre": "Cruce Calle_way/263091508 & Calle_way/263091530",
      "lat": -11.864242,
      "lon": -77.060464,
      "tipo": "interseccion",
      "reportes": []
    },
    "I497": {
      "nombre": "Cruce Calle_way/263091508 & Calle_way/690973180",
      "lat": -11.864535,
      "lon": -77.060439,
      "tipo": "interseccion",
      "reportes": []
    },
    "I498": {
      "nombre": "Cruce Calle_way/263091508 & Calle_way/263091534",
      "lat": -11.864897,
      "lon": -77.060407,
      "tipo": "interseccion",
      "reportes": []
    },
    "I499": {
      "nombre": "Cruce Calle_way/263091508 & Calle_way/263091526",
      "lat": -11.865421,
      "lon": -77.060362,
      "tipo": "interseccion",
      "reportes": []
    },
    "I500": {
      "nombre": "Cruce Calle_way/263091508 & Calle_way/724617857",
      "lat": -11.866156,
      "lon": -77.060301,
      "tipo": "interseccion",
      "reportes": []
    },
    "I501": {
      "nombre": "Cruce Calle_way/263091511 & Avenida San Juan de Dios",
      "lat": -11.863622,
      "lon": -77.060023,
      "tipo": "interseccion",
      "reportes": []
    },